City_ID,City,Lat,Lng,Max Temp,Humidity,Cloudiness,Wind Speed,Country,Date
0,edinburgh of the seven seas,-37.0676,-12.3116,18.261111111111113,70,87,11.65,SH,1707404063
1,wailua homesteads,22.0669,-159.378,22.43888888888889,78,0,13.8,US,1707404063
2,puerto natales,-51.7236,-72.4875,13.250000000000002,50,75,28.77,CL,1707404063
3,kavaratti,10.5669,72.642,28.388888888888886,73,3,6.38,IN,1707404063
4,bilibino,68.0546,166.4372,-31.599999999999998,100,99,0.65,RU,1707404063
5,adamstown,-25.066,-130.1015,23.927777777777774,88,100,22.5,PN,1707404063
6,brookings,44.3114,-96.7984,6.322222222222224,90,100,11.5,US,1707403960
7,hawaiian paradise park,19.5933,-154.9731,18.82777777777778,94,20,8.05,US,1707404063
8,kapa'a,22.0752,-159.319,23.177777777777777,78,0,13.8,US,1707404064
9,wau,7.7029,27.9953,35.33888888888889,13,5,5.01,SS,1707404064
10,tahla,34.0485,-4.428,20.8,22,100,10.04,MA,1707404064
11,blackmans bay,-43.0167,147.3167,15.072222222222225,85,84,1.01,AU,1707404064
12,parham,17.0968,-61.7705,21.688888888888894,60,75,4.61,AG,1707404064
13,fortuna,40.5982,-124.1573,3.5277777777777786,97,100,0.0,US,1707404064
14,constantia,44.1833,28.65,16.500000000000004,55,36,6.98,RO,1707404064
15,itapirapua,-15.8233,-50.6133,32.72222222222223,53,89,1.74,BR,1707404064
16,barwadih,23.8333,84.1167,13.58888888888889,29,27,4.25,IN,1707404065
17,kingston,17.997,-76.7936,26.799999999999997,63,20,5.75,JM,1707404038
18,kone,-21.0595,164.8658,23.138888888888893,86,100,5.39,NC,1707404065
19,udachny,66.4167,112.4,-30.311111111111114,74,94,3.38,RU,1707404065
20,yellowknife,62.456,-114.3525,-15.877777777777778,89,100,5.99,CA,1707404065
21,grytviken,-54.2811,-36.5092,6.6499999999999995,94,100,18.37,GS,1707404065
22,waingapu,-9.6567,120.2641,26.58888888888889,86,99,5.48,ID,1707404065
23,nyzhni sirohozy,46.8484,34.3804,6.7777777777777795,82,98,5.28,UA,1707404065
24,howrah,22.5892,88.3103,21.0,49,20,0.0,IN,1707404066
25,bonthe,7.5264,-12.505,31.838888888888892,56,11,14.58,SL,1707404066
26,san patricio,28.017,-97.5169,19.527777777777782,84,100,4.03,US,1707404066
27,remire-montjoly,4.9167,-52.2667,30.022222222222226,74,75,20.71,GF,1707404066
28,ribeira grande,38.5167,-28.7,17.22222222222222,82,40,25.99,PT,1707404066
29,el granada,37.5027,-122.4694,7.149999999999999,89,20,3.44,US,1707404066
30,merizo village,13.2658,144.6691,26.311111111111114,79,100,16.67,GU,1707404066
31,port-aux-francais,-49.35,70.2167,4.527777777777777,67,40,16.69,TF,1707404066
32,sao felix do xingu,-6.6447,-51.995,31.350000000000005,64,63,1.9,BR,1707404066
33,jatiroto,-7.8833,111.1167,23.922222222222224,94,99,3.18,ID,1707404067
34,uturoa,-16.7333,-151.4333,28.11111111111111,84,98,22.77,PF,1707404067
35,waitangi,-43.9535,-176.5597,14.9,82,40,7.0,NZ,1707404067
36,newport,51.5877,-2.9984,13.22777777777778,96,100,2.37,GB,1707404067
37,fredericton,45.9454,-66.6656,-8.422222222222222,85,75,0.0,CA,1707404032
38,portland,45.5234,-122.6762,5.899999999999999,95,100,3.0,US,1707404048
39,bethel,41.3712,-73.414,6.988888888888888,57,0,0.0,US,1707404067
40,usinsk,65.9939,57.5281,-3.85,85,100,10.0,RU,1707404067
41,jackson,42.4165,-122.8345,3.927777777777778,89,100,0.0,US,1707404067
42,lincheng,19.9078,109.6858,15.372222222222224,87,100,14.56,CN,1707404068
43,kapuskasing,49.4169,-82.4331,1.0500000000000003,93,100,11.5,CA,1707403940
44,breckenridge,32.7557,-98.9023,11.77777777777778,71,0,11.5,US,1707404068
45,rizhao,35.4275,119.4553,-1.1500000000000001,75,35,4.36,CN,1707404068
46,iqaluit,63.7506,-68.5145,-23.150000000000002,70,75,0.0,CA,1707403835
47,walvis bay,-22.9575,14.5053,22.65,63,63,18.72,NA,1707404068
48,champerico,14.3,-91.9167,23.3,70,11,3.85,GT,1707404068
49,stanley,54.868,-1.6985,2.0888888888888877,90,75,12.66,GB,1707404068
50,lhokseumawe,5.1801,97.1507,26.761111111111113,82,58,6.49,ID,1707404069
51,klaeng,12.7797,101.6483,26.427777777777774,84,6,5.39,TH,1707404069
52,kirakira,-10.4544,161.9205,27.772222222222222,84,100,17.67,SB,1707404069
53,vuktyl,63.8567,57.3094,-6.050000000000001,86,100,7.0,RU,1707404069
54,punta arenas,-53.15,-70.9167,12.061111111111112,60,75,14.97,CL,1707404069
55,port victoria,0.0939,33.9756,24.86111111111111,64,60,12.26,KE,1707404069
56,west island,-12.1568,96.8225,27.988888888888887,83,100,10.36,CC,1707404069
57,kanniyakumari,8.0833,77.5667,26.57777777777778,72,100,13.38,IN,1707404069
58,polyarnyy,69.1989,33.4478,-23.32777777777778,100,82,6.78,RU,1707404069
59,yambio,4.5721,28.3955,35.58888888888889,17,20,4.45,SS,1707404059
60,praia da vitoria,38.7333,-27.0667,18.138888888888893,72,40,22.03,PT,1707404070
61,cobourg,50.2667,10.9667,8.761111111111113,97,100,10.18,DE,1707403830
62,juan rodriguez clara,17.9833,-95.4083,18.661111111111115,81,3,6.73,MX,1707404070
63,port elizabeth,-33.918,25.5701,24.161111111111108,64,0,16.11,ZA,1707403888
64,bredasdorp,-34.5322,20.0403,23.62777777777778,46,83,18.79,ZA,1707403842
65,buka,40.8108,69.1986,10.277777777777779,50,100,2.8,UZ,1707404070
66,as sulayyil,20.4607,45.5779,21.13888888888889,38,52,11.88,SA,1707404070
67,yuzhno-kurilsk,44.0306,145.8556,-3.6777777777777785,77,35,14.65,RU,1707404070
68,sardinata,8.0829,-72.8007,22.822222222222223,95,100,1.19,CO,1707404070
69,lycksele,64.5954,18.6735,-8.072222222222223,86,100,11.5,SE,1707404071
70,ilulissat,69.2167,-51.1,-12.98888888888889,56,75,11.5,GL,1707404071
71,miguel calmon,-11.4289,-40.595,32.65,41,88,4.92,BR,1707403887
72,san felipe,10.3399,-68.7425,27.422222222222224,72,82,5.08,VE,1707404071
73,hermanus,-34.4187,19.2345,23.22222222222222,66,79,12.28,ZA,1707404057
74,aleksandrovsk-sakhalinskiy,50.8975,142.1561,-21.91111111111111,99,91,1.23,RU,1707404071
75,luanco,43.6152,-5.7934,19.86111111111111,53,100,16.87,ES,1707404071
76,kavalerovo,44.2661,135.0572,-17.3,98,56,4.05,RU,1707404071
77,portage la prairie,49.9728,-98.2926,0.0500000000000019,89,100,14.97,CA,1707404071
78,puerto ayora,-0.7393,-90.3518,27.977777777777778,90,97,4.0,EC,1707404072
79,yangambi,0.8102,24.4336,37.45,14,0,0.94,CD,1707404072
80,shahrud,36.4182,54.9763,5.822222222222221,53,0,0.51,IR,1707404072
81,tolanaro,-25.0319,46.9987,28.038888888888888,78,20,24.16,MG,1707404072
82,urangan,-25.3,152.9,25.111111111111114,88,26,5.01,AU,1707404072
83,jamestown,42.097,-79.2353,5.772222222222223,67,0,6.91,US,1707403965
84,la'ie,21.6477,-157.9253,22.011111111111113,81,64,4.0,US,1707404072
85,kichmengskiy gorodok,59.9816,45.7854,-13.922222222222222,96,100,5.99,RU,1707404073
86,colesberg,-30.72,25.0972,31.58888888888889,5,0,18.45,ZA,1707404073
87,avarua,-21.2078,-159.775,27.027777777777782,83,75,13.8,CK,1707404073
88,thompson,55.7435,-97.8558,-16.91111111111111,85,100,11.5,CA,1707404073
89,invercargill,-46.4,168.35,6.67777777777778,90,21,3.0,NZ,1707403812
90,jiamusi,46.8333,130.35,-17.62777777777778,97,56,5.84,CN,1707404073
91,hithadhoo,-0.6,73.0833,28.22222222222222,74,100,12.68,MV,1707404073
92,reyes,-14.3167,-67.3833,28.977777777777778,79,40,0.0,BO,1707404073
93,harstad,68.799,16.5293,-3.250000000000001,82,96,21.0,NO,1707404074
94,coahuayana de hidalgo,18.7,-103.6583,24.36111111111111,69,81,0.94,MX,1707404074
95,fort mcmurray,56.7268,-111.381,-7.227777777777779,86,100,2.3,CA,1707403819
96,jamsankoski,61.919,25.1701,-17.727777777777778,100,43,2.91,FI,1707404074
97,talnakh,69.4865,88.3972,-26.0,84,10,3.53,RU,1707404074
98,sorong,-0.8833,131.25,27.43888888888889,82,100,7.74,ID,1707404074
99,luena,-11.7833,19.9167,25.650000000000002,63,75,2.84,AO,1707404074
100,puerto aysen,-45.4,-72.7,14.777777777777779,85,100,4.45,CL,1707404074
101,boende,-0.2167,20.8667,31.91111111111111,43,53,3.76,CD,1707404075
102,abu jibeha,11.4562,31.2285,32.68888888888889,13,79,3.33,SD,1707404075
103,atafu village,-8.5421,-172.5159,26.761111111111113,85,100,17.05,TK,1707404075
104,college,64.8569,-147.8028,-23.83888888888889,75,40,4.61,US,1707404075
105,zhezqazghan,47.7833,67.7667,0.3222222222222213,93,100,24.61,KZ,1707404075
106,quellon,-43.1167,-73.6167,15.6,64,11,12.44,CL,1707404075
107,guaruja,-23.9931,-46.2564,30.500000000000004,36,75,5.01,BR,1707404075
108,kununurra,-15.7667,128.7333,27.988888888888887,83,100,0.0,AU,1707404075
109,papatowai,-46.5619,169.4708,8.299999999999999,81,34,3.36,NZ,1707404076
110,severo-yeniseyskiy,60.3725,93.0408,-15.08888888888889,99,97,3.83,RU,1707404076
111,touros,-5.1989,-35.4608,30.900000000000002,62,24,13.91,BR,1707404076
112,ilhabela,-23.7781,-45.3581,28.472222222222225,71,89,6.24,BR,1707404076
113,el bauga,18.262,33.9081,28.177777777777777,16,29,7.94,SD,1707404076
114,margaret river,-33.95,115.0667,21.12777777777778,52,0,10.67,AU,1707404076
115,sovetskiy,61.3614,63.5842,-8.38888888888889,94,100,8.99,RU,1707404076
116,thunder bay,48.4001,-89.3168,1.949999999999999,93,75,11.5,CA,1707404067
117,albany,42.6001,-73.9662,4.261111111111112,67,17,1.01,US,1707404059
118,chonchi,-42.6128,-73.8092,13.56111111111111,47,28,5.7,CL,1707404077
119,port saint john's,-31.6229,29.5448,24.47777777777778,63,15,6.58,ZA,1707404077
120,aral,40.5156,81.2636,-0.011111111111110876,57,2,2.77,CN,1707404077
121,caleta de carquin,-11.0925,-77.6267,26.15,76,24,7.29,PE,1707404077
122,callao,-12.0667,-77.15,26.161111111111115,83,40,12.66,PE,1707404077
123,huancavelica,-12.7667,-74.9833,6.238888888888887,78,100,3.94,PE,1707404077
124,tomatlan,19.9333,-105.25,21.32777777777778,70,59,1.83,MX,1707404077
125,colonia,50.9333,6.95,12.07777777777778,91,75,5.75,DE,1707403987
126,kampot,10.6167,104.1833,24.02777777777778,75,96,2.57,KH,1707404077
127,karratha,-20.7377,116.8463,31.47222222222223,39,0,10.36,AU,1707404078
128,vilyuysk,63.7553,121.6247,-32.22222222222222,99,98,1.99,RU,1707404078
129,port mathurin,-19.6833,63.4167,27.138888888888886,76,100,22.41,MU,1707404078
130,ust-nera,64.5667,143.2,-29.07777777777778,100,99,1.48,RU,1707404078
131,ushuaia,-54.8,-68.3,9.81111111111111,62,75,12.66,AR,1707403883
132,rongelap,11.1635,166.8941,26.372222222222224,86,87,21.45,MH,1707404078
133,sarupathar,26.1984,93.8094,14.088888888888889,81,97,2.26,IN,1707404078
134,inarajan village,13.2736,144.7484,26.538888888888888,79,100,16.84,GU,1707404078
135,kitimat,54.0524,-128.6534,-1.7888888888888883,99,90,1.12,CA,1707404078
136,roma,43.2128,-75.4557,7.149999999999999,56,0,6.91,US,1707404070
137,lebu,-37.6167,-73.65,16.97777777777778,62,65,18.77,CL,1707404079
138,aasiaat,68.7098,-52.8699,-23.36111111111111,95,99,14.34,GL,1707404079
139,aoulef,26.9667,1.0833,24.627777777777776,10,0,6.46,DZ,1707404079
140,utrik,11.2278,169.8474,26.427777777777774,84,100,22.26,MH,1707404079
141,urengoy,65.9667,78.3667,-5.372222222222224,93,97,16.73,RU,1707404079
142,olonkinbyen,70.9221,-8.7187,-2.561111111111111,67,25,12.66,SJ,1707404079
143,nemuro,43.3236,145.575,-3.7277777777777783,77,30,13.78,JP,1707404079
144,nova sintra,14.8667,-24.7167,21.761111111111113,72,0,18.19,CV,1707404079
145,alofi,-19.0595,-169.9187,25.93888888888889,94,53,1.14,NU,1707404079
146,det udom,14.906,105.0784,29.9,43,66,8.66,TH,1707404079
147,hyesan,41.4017,128.1778,-16.02777777777778,95,26,1.9,KP,1707404079
148,gizo,-8.103,156.8419,27.550000000000004,84,100,20.29,SB,1707404080
149,keflavik,64.0049,-22.5624,-5.05,63,0,6.91,IS,1707404080
150,vernon,50.2581,-119.2691,1.8277777777777773,94,76,1.14,CA,1707403834
151,nacala,-14.5428,40.6728,27.872222222222224,82,100,5.3,MZ,1707404080
152,katsuura,35.1333,140.3,8.13888888888889,67,100,10.29,JP,1707404080
153,yamada,39.4667,141.95,1.1999999999999982,70,9,4.41,JP,1707404080
154,palu,-0.8917,119.8707,24.977777777777774,93,100,1.16,ID,1707404080
155,al quwayrah,29.8004,35.3116,23.000000000000004,24,2,3.47,JO,1707404080
156,coronel dorrego,-38.7187,-61.2873,29.377777777777776,56,91,10.47,AR,1707404080
157,mananjary,-21.2167,48.3333,25.72222222222222,90,94,5.26,MG,1707404080
158,revda,56.801,59.9303,-8.911111111111111,95,100,6.82,RU,1707404081
159,kodiak,57.79,-152.4072,-5.272222222222221,86,75,6.91,US,1707404081
160,birao,10.2849,22.7882,35.78888888888889,11,50,4.36,CF,1707404081
161,bouar,5.934,15.596,34.02777777777778,13,27,6.33,CF,1707404081
162,viedma,-40.8135,-62.9967,27.25,42,83,9.86,AR,1707404081
163,rio branco,-9.9747,-67.81,30.33888888888889,70,0,3.44,BR,1707403819
164,arkhangel'sk,64.5401,40.5433,-11.93888888888889,92,100,8.95,RU,1707403844
165,sittwe,20.15,92.9,22.272222222222226,54,0,15.88,MM,1707404081
166,malvan,16.0667,73.4667,26.311111111111114,67,7,13.58,IN,1707404082
167,port lincoln,-34.7333,135.8667,16.561111111111114,79,0,14.88,AU,1707404082
168,ogden,41.223,-111.9738,1.400000000000002,90,100,9.22,US,1707403888
169,pingliang,35.5392,106.6861,-1.7888888888888883,74,8,3.8,CN,1707404082
170,zaysan,47.4667,84.8667,-5.772222222222223,82,69,7.36,KZ,1707404082
171,tiksi,71.6872,128.8694,-21.6,100,100,4.05,RU,1707404082
172,lompoc,34.6391,-120.4579,7.177777777777779,85,75,11.01,US,1707404082
173,pishin,30.5803,66.9961,8.88888888888889,34,0,1.86,PK,1707404082
174,fiambala,-27.6871,-67.6149,27.600000000000005,41,100,6.44,AR,1707404082
175,port isabel,26.0734,-97.2086,20.6,87,100,3.44,US,1707404082
176,ailuk,10.2197,169.9797,26.650000000000002,83,100,22.88,MH,1707404083
177,ulsteinvik,62.3432,5.8487,-0.37777777777777766,86,67,3.0,NO,1707404083
178,nouadhibou,20.931,-17.0347,29.98888888888889,11,1,6.91,MR,1707404083
179,nizhniy kuranakh,58.8353,125.4869,-26.738888888888887,99,100,2.98,RU,1707404083
180,carutapera,-1.195,-46.02,30.27777777777778,66,79,10.29,BR,1707403997
181,klyuchi,52.2667,79.1667,-3.6222222222222222,85,97,19.01,RU,1707404083
182,magadan,59.5667,150.8,-25.76111111111111,85,15,7.27,RU,1707404083
183,kodinsk,58.6881,99.1844,-9.761111111111111,99,100,2.01,RU,1707404083
184,vila franca do campo,37.7167,-25.4333,18.272222222222222,99,94,19.22,PT,1707404083
185,dunedin,-45.8742,170.5036,10.450000000000001,72,14,3.0,NZ,1707404083
186,nogliki,51.8333,143.1667,-19.25,96,100,5.99,RU,1707403809
187,moab,38.5733,-109.5498,5.338888888888889,53,62,1.99,US,1707403798
188,longyearbyen,78.2186,15.6401,-9.088888888888889,67,20,11.5,SJ,1707404084
189,kuta,-8.7233,115.1723,27.97222222222222,88,40,1.14,ID,1707404084
190,port douglas,-16.4833,145.4667,26.622222222222224,82,84,6.13,AU,1707404084
191,ciudad lazaro cardenas,17.9583,-102.2,26.300000000000004,63,93,1.9,MX,1707403813
192,qaqortoq,60.7167,-46.0333,-10.161111111111111,71,30,12.39,GL,1707404084
193,pospelikha,51.95,81.7667,-2.622222222222222,85,100,19.8,RU,1707404084
194,hami,42.8,93.45,-2.2500000000000004,57,8,6.58,CN,1707404084
195,hamilton,39.1834,-84.5333,12.922222222222222,51,75,11.5,US,1707404060
196,fukuecho,32.6881,128.8419,9.31111111111111,69,94,14.97,JP,1707404084
197,noosa heads,-26.3833,153.15,25.622222222222227,82,54,18.19,AU,1707404084
198,fada,9.5667,8.3,35.35,11,6,5.68,NG,1707404084
199,mata-utu,-13.2816,-176.1745,28.788888888888888,81,86,22.66,WF,1707404085
200,pass christian,30.3158,-89.2475,17.22222222222222,67,75,16.11,US,1707403861
201,meadow lake,34.8014,-106.5436,2.6722222222222234,67,47,3.0,US,1707404085
202,usogorsk,63.4106,48.6872,-6.85,95,100,9.51,RU,1707404085
203,inhambane,-23.865,35.3833,30.0,70,20,14.0,MZ,1707404085
204,honggang,46.4667,124.8667,-13.13888888888889,89,98,6.64,CN,1707404085
205,onega,63.9061,38.1404,-13.738888888888889,90,100,12.75,RU,1707404085
206,ghatanji,20.1333,78.3167,25.111111111111114,31,0,5.03,IN,1707404085
207,cole harbour,44.6724,-63.4751,-2.23888888888889,82,75,10.36,CA,1707404085
208,bad kosen,51.1333,11.7167,5.122222222222222,77,100,5.08,DE,1707404086
209,anadyr,64.75,177.4833,-7.722222222222221,86,100,22.37,RU,1707404086
210,hrajel,34.0148,35.7946,11.638888888888891,72,100,0.36,LB,1707404086
211,lihue,21.9789,-159.3672,22.772222222222222,77,0,13.8,US,1707404054
212,badger,64.8,-147.5333,-23.88888888888889,79,0,4.61,US,1707404086
213,sabzevar,36.2126,57.6819,10.6,54,0,11.5,IR,1707404086
214,labytnangi,66.6572,66.4183,-8.711111111111112,92,98,18.88,RU,1707404086
215,filadelfia,39.9523,-75.1638,8.527777777777779,69,40,0.0,US,1707403941
216,ndjole,-0.1783,10.7649,30.822222222222226,65,100,5.41,GA,1707404086
217,thal,35.4791,72.2439,-2.9999999999999996,55,93,9.84,PK,1707404086
218,prince rupert,54.3161,-130.3201,1.8277777777777773,100,100,9.22,CA,1707404086
219,igarka,67.4667,86.5833,-23.5,98,29,6.29,RU,1707404086
220,pembroke,45.8168,-77.1162,-2.1222222222222227,78,85,6.06,CA,1707404087
221,hailar,49.2,119.7,-25.88888888888889,100,72,4.56,CN,1707404087
222,fort st. john,56.2499,-120.8529,-11.061111111111112,92,75,4.61,CA,1707404087
223,georgetown,5.4112,100.3354,29.972222222222225,81,20,4.61,MY,1707404087
224,belgrade,44.804,20.4651,17.811111111111114,36,0,8.05,RS,1707403876
225,new norfolk,-42.7826,147.0587,15.722222222222221,92,82,3.33,AU,1707404087
226,la passe,45.5549,-0.8967,14.127777777777778,62,100,28.23,FR,1707404087
227,letlhakane,-21.4167,25.5833,37.272222222222226,18,59,10.63,BW,1707404087
228,mount pearl,47.5166,-52.7813,-0.3111111111111104,92,100,11.5,CA,1707404087
229,holualoa,19.6228,-155.9522,20.91111111111111,76,100,4.61,US,1707404087
230,inirida,3.8653,-67.9239,30.877777777777776,63,73,1.66,CO,1707404088
231,east london,-33.0153,27.9116,24.522222222222222,69,0,12.66,ZA,1707404088
232,poronaysk,49.2167,143.1167,-21.038888888888888,98,93,4.63,RU,1707404088
233,nurabad,34.0734,47.9725,2.23888888888889,73,0,2.93,IR,1707404088
234,gadzhiyevo,69.2551,33.3362,-24.45,100,89,6.35,RU,1707404088
235,shambu,9.5667,37.1,17.727777777777778,48,95,1.97,ET,1707404088
236,ancud,-41.8697,-73.8203,16.85,58,55,7.65,CL,1707404088
237,hays,30.0502,-98.0336,16.12777777777778,87,100,4.5,US,1707404088
238,vrangel',42.7297,133.0839,-5.822222222222223,58,0,7.02,RU,1707404088
239,broken hill,-31.95,141.4333,24.261111111111113,33,77,11.68,AU,1707403946
240,at taraf,25.3628,49.725,22.3,26,0,8.23,SA,1707404088
241,port alfred,-33.5906,26.891,24.53888888888889,62,5,5.01,ZA,1707404089
242,ocozocoautla de espinosa,16.7667,-93.3667,18.661111111111115,56,10,5.12,MX,1707404089
243,la sarre,48.8002,-79.1996,-1.4722222222222214,92,100,8.52,CA,1707404089
244,muynoq,43.7683,59.0214,9.588888888888889,59,37,14.36,UZ,1707404089
245,cidreira,-30.1811,-50.2056,27.088888888888892,74,72,11.16,BR,1707404058
246,isafjordur,66.0755,-23.124,-6.977777777777777,68,0,0.0,IS,1707404089
247,olyokminsk,60.3736,120.4264,-34.93888888888889,100,70,0.58,RU,1707404089
248,bikenibeu village,1.3673,173.1241,29.977777777777774,79,75,13.8,KI,1707404089
249,forster,-32.1667,152.5167,18.48888888888889,91,83,7.7,AU,1707404089
250,hasaki,35.7333,140.8333,4.222222222222223,61,100,16.17,JP,1707404089
251,moree,-29.4667,149.85,23.43888888888889,66,47,8.81,AU,1707404090
252,mooloolaba,-26.6833,153.1167,25.588888888888892,92,37,5.01,AU,1707404090
253,messini,37.0511,22.0078,17.322222222222223,67,40,6.91,GR,1707404090
254,mokhsogollokh,61.4681,128.9203,-36.5388888888889,100,100,2.28,RU,1707404090
255,khandyga,62.6667,135.6,-44.72222222222222,100,69,2.19,RU,1707404090
256,tamandare,-8.7597,-35.1047,31.25,59,33,11.01,BR,1707403995
257,hobe sound,27.0595,-80.1364,21.072222222222226,78,75,6.91,US,1707404090
258,whitehorse,60.7161,-135.0538,-21.772222222222222,79,75,2.3,CA,1707404090
259,asau,46.4333,26.4,5.511111111111112,76,100,8.93,RO,1707404090
260,dryden,49.7833,-92.7503,2.1611111111111114,100,100,12.66,CA,1707404090
261,enewetak,11.3474,162.3373,26.46111111111111,75,68,21.34,MH,1707404091
262,mount isa,-20.7333,139.5,24.87222222222222,83,100,5.75,AU,1707404091
263,baiti,13.745,-14.7482,39.761111111111106,5,99,11.41,SN,1707404091
264,nguigmi,14.2495,13.1092,27.138888888888886,16,3,6.67,NE,1707404091
265,namibe,-15.1961,12.1522,28.150000000000002,67,71,13.04,AO,1707404091
266,saint-philippe,-21.3585,55.7679,26.772222222222222,84,100,12.01,RE,1707404091
267,smirnovo,54.5125,69.4222,-6.527777777777778,95,100,12.77,KZ,1707404091
268,tarikere,13.7167,75.8167,25.93888888888889,26,3,3.2,IN,1707404091
269,puerto deseado,-47.7503,-65.8938,16.461111111111112,46,13,4.32,AR,1707404091
270,taunggyi,20.7833,97.0333,14.122222222222224,56,0,2.98,MM,1707404091
271,lampasas,31.2168,-98.2336,15.050000000000002,95,0,0.0,US,1707404091
272,petropavlovsk-kamchatsky,53.0452,158.6483,-8.672222222222222,90,75,5.01,RU,1707404091
273,la maddalena,41.2142,9.4083,20.02777777777778,73,18,20.62,IT,1707404092
274,chernyshkovskiy,48.4219,42.2308,2.8999999999999995,92,100,8.81,RU,1707404092
275,ladario,-19.0047,-57.6017,29.161111111111108,74,0,11.5,BR,1707403877
276,saudarkrokur,65.7461,-19.6394,-12.63888888888889,83,5,7.02,IS,1707404092
277,inyati,-19.6756,28.8469,31.411111111111115,27,66,10.42,ZW,1707404092
278,sodra sandby,56.5667,16.6167,-0.6222222222222228,90,78,8.1,SE,1707404092
279,namtsy,62.7161,129.6658,-38.550000000000004,100,95,0.94,RU,1707404092
280,ribeirao da ilha,-27.6993,-48.5322,35.06111111111111,61,40,11.5,BR,1707404093
281,nueva gerona,21.8833,-82.8,22.772222222222222,58,48,15.64,CU,1707404093
282,sisimiut,66.9395,-53.6735,-14.82777777777778,91,100,4.68,GL,1707404093
283,ramla,31.9253,34.8669,19.93888888888889,66,0,8.05,IL,1707404093
284,kyabe,9.4515,18.9449,36.67777777777778,11,5,2.53,TD,1707404093
285,babolsar,36.7025,52.6576,15.177777777777779,61,0,0.83,IR,1707404093
286,marka,1.7159,44.7717,27.350000000000005,81,62,20.58,SO,1707404093
287,simplicio mendes,-7.8539,-41.9103,35.422222222222224,35,70,2.42,BR,1707404093
288,bamboo flat,11.7,92.7167,27.05,78,20,9.22,IN,1707404093
289,juan de herrera,18.874,-71.2383,23.850000000000005,53,21,9.53,DO,1707404093
290,codrington,-38.2667,141.9667,12.422222222222222,87,7,7.65,AU,1707404093
291,corner brook,48.9667,-57.9484,-12.911111111111113,80,100,3.62,CA,1707404093
292,aswan,24.0934,32.907,27.611111111111114,16,0,0.0,EG,1707404094
293,choyr,46.3611,108.3611,-23.38888888888889,95,19,6.15,MN,1707404094
294,uzhur,55.3036,89.8339,-4.73888888888889,93,100,5.84,RU,1707404094
295,karachi,24.9056,67.0822,19.9,32,3,5.75,PK,1707404080
296,pervomayskoye,43.919,46.7102,10.772222222222222,51,13,7.31,RU,1707404094
297,rio grande,-32.035,-52.0986,30.527777777777782,66,19,8.79,BR,1707404094
298,antofagasta,-23.65,-70.4,23.600000000000005,66,0,7.9,CL,1707403823
299,panjab,34.388,67.0233,-15.05,64,3,3.6,AF,1707404094
300,puerto baquerizo moreno,-0.9,-89.6,25.688888888888886,77,99,9.86,EC,1707403943
301,grand falls-windsor,48.9332,-55.6649,-3.611111111111111,89,69,5.46,CA,1707404094
302,kelo,9.3086,15.8066,34.527777777777786,11,19,5.35,TD,1707404095
303,tazacorte,28.629,-17.9293,26.538888888888888,17,100,18.41,ES,1707404095
304,great falls,47.5002,-111.3008,-3.75,93,100,8.05,US,1707404095
305,nuuk,64.1835,-51.7216,-10.66111111111111,79,75,14.97,GL,1707404095
306,coquimbo,-29.9533,-71.3436,18.850000000000005,94,100,4.61,CL,1707404095
307,krasnyy chikoy,50.3643,108.7512,-21.41111111111111,100,38,1.81,RU,1707404095
308,weno,7.4515,151.8468,27.97222222222222,83,40,10.36,FM,1707404095
309,san buenaventura,27.0833,-101.5333,16.700000000000003,63,27,5.03,MX,1707404095
310,pader palwo,2.8006,33.135,31.12222222222222,29,85,6.98,UG,1707404095
311,atasu,48.6814,71.6433,-1.9777777777777772,92,100,22.64,KZ,1707404096
312,alaghsas,17.0187,8.0168,26.938888888888886,10,0,9.22,NE,1707404096
313,egilsstadir,65.2653,-14.3948,-8.049999999999999,67,0,1.14,IS,1707404096
314,kattivakkam,13.2167,80.3167,27.277777777777775,77,35,7.65,IN,1707404096
315,dudinka,69.4058,86.1778,-25.772222222222222,95,6,5.01,RU,1707404096
316,bereznik,62.8551,42.7072,-13.427777777777779,94,100,10.11,RU,1707404096
317,alo,7.4178,6.7371,40.10000000000001,10,7,3.36,NG,1707404096
318,nantucket,41.2835,-70.0995,5.0500000000000025,70,0,9.4,US,1707404096
319,lata,40.1629,-8.3327,16.011111111111113,94,100,13.24,PT,1707404096
320,haiku-pauwela,20.9219,-156.3051,22.25,79,0,3.44,US,1707404096
321,alice springs,-23.7,133.8833,26.227777777777774,20,36,8.05,AU,1707404097
322,vizinga,61.0749,50.1031,-6.15,92,100,10.69,RU,1707404097
323,malabar,-33.9667,151.25,19.511111111111113,71,40,9.22,AU,1707404097
324,tura,25.5198,90.2201,12.5,40,53,2.55,IN,1707404097
325,ust'-ilimsk,58.0006,102.6619,-8.63888888888889,98,100,3.0,RU,1707404097
326,zaozersk,69.4005,32.4476,-25.188888888888894,99,33,5.01,RU,1707404097
327,fairview,40.8126,-73.999,7.822222222222222,55,0,8.01,US,1707404097
328,glace bay,46.1969,-59.957,2.1611111111111114,78,75,11.5,CA,1707404097
329,okondja,-0.6549,13.6753,28.9,59,99,2.98,GA,1707404097
330,nuku'alofa,-21.1333,-175.2,27.18888888888889,94,20,8.05,TO,1707404098
331,novoagansk,61.9449,76.6625,-7.227777777777779,96,100,7.7,RU,1707404098
332,antigonish,45.6169,-61.9986,-0.47777777777777747,87,54,3.0,CA,1707404098
333,paoua,7.2427,16.4406,35.12777777777778,12,73,4.14,CF,1707404098
334,port shepstone,-30.7414,30.455,23.75,76,100,6.24,ZA,1707404098
335,knin,44.0439,16.2,14.522222222222224,75,64,5.08,HR,1707404098
336,laredo,27.5064,-99.5075,15.161111111111111,94,0,8.05,US,1707403893
337,naja' hammadi,26.0495,32.2414,23.911111111111115,16,0,6.71,EG,1707404098
338,vadso,70.0744,29.7487,-14.911111111111111,85,75,16.11,NO,1707404098
339,kegeyli shahar,42.7767,59.6078,11.05,55,59,10.29,UZ,1707404098
340,ugento,39.9263,18.1574,17.72222222222222,74,3,8.05,IT,1707404098
341,al jawf,29.5,38.75,17.7,24,0,8.84,SA,1707404099
342,arraial do cabo,-22.9661,-42.0278,30.97777777777778,70,40,10.36,BR,1707404099
343,sur,22.5667,59.5289,21.750000000000004,66,96,11.36,OM,1707404099
344,dongcun,36.7767,121.1597,-2.7777777777777777,71,20,5.61,CN,1707404099
345,tyukalinsk,55.8732,72.1967,-9.561111111111112,94,95,12.48,RU,1707404099
346,bardai,11.65,7.2333,31.238888888888894,10,23,10.94,NG,1707404099
347,talaja,21.35,72.05,24.288888888888888,32,29,9.42,IN,1707404099
348,sungai penuh,-2.0833,101.3833,19.122222222222224,98,100,0.96,ID,1707404099
349,tralee,52.2704,-9.7026,12.138888888888891,94,75,9.22,IE,1707404099
350,bobrovytsya,50.75,31.3833,-0.07222222222222167,64,100,3.78,UA,1707404100
351,nar'yan-mar,67.6713,53.087,-9.93888888888889,95,99,8.01,RU,1707404100
352,sechura,-5.5569,-80.8222,27.727777777777778,67,60,6.22,PE,1707403919
353,afaahiti,-17.75,-149.2833,26.927777777777777,92,100,28.39,PF,1707404100
354,ambajogai,18.7333,76.3833,25.488888888888887,30,0,6.62,IN,1707404100
355,chui,-33.6971,-53.4616,30.972222222222225,47,42,6.91,UY,1707404100
356,sitka,57.0531,-135.33,1.93888888888889,80,100,4.61,US,1707404100
357,daoukro,7.0591,-3.9631,38.922222222222224,9,5,4.85,CI,1707404100
358,saipan,15.1355,145.701,26.38888888888889,73,0,12.66,MP,1707404100
359,gao,16.6362,1.637,29.47222222222222,6,42,10.58,ML,1707404101
360,kerikeri,-35.2268,173.9474,16.622222222222224,88,44,5.53,NZ,1707403811
361,naze,28.3667,129.4833,13.511111111111111,71,100,11.72,JP,1707404101
362,bosaso,11.2842,49.1816,26.98888888888889,78,20,23.02,SO,1707404101
363,kailua-kona,19.6406,-155.9956,22.977777777777778,76,100,4.61,US,1707404101
364,youhao,47.8667,128.8333,-20.83888888888889,100,95,1.07,CN,1707404101
365,rumoi,43.9344,141.6428,-3.099999999999999,71,100,10.71,JP,1707404101
366,kutum,14.2,24.6667,28.42222222222222,13,5,4.14,SD,1707404102
367,iskateley,67.6803,53.1512,-9.988888888888889,95,99,8.01,RU,1707404102
368,sarapul,56.4763,53.7978,-9.100000000000001,96,100,4.25,RU,1707404102
369,betio village,1.358,172.9211,30.022222222222226,77,100,22.19,KI,1707404102
370,orchard homes,46.8633,-114.0484,-0.08888888888888898,96,100,1.01,US,1707404103
371,tofol,5.3248,163.0078,27.727777777777778,72,100,21.77,FM,1707404103
372,mosfellsbaer,64.1667,-21.7,-5.272222222222221,46,0,5.75,IS,1707404103
373,pointe michel,15.25,-61.3833,28.522222222222226,69,40,2.3,DM,1707404103
374,arteche,12.2645,125.4048,25.500000000000004,82,46,5.91,PH,1707404104
375,oum hadjer,13.2954,19.6966,32.199999999999996,12,31,5.14,TD,1707404104
376,saint joseph,39.7686,-94.8466,11.97777777777778,73,0,16.11,US,1707404104
377,sandnessjoen,66.0217,12.6316,-1.938888888888888,86,75,17.27,NO,1707404104
378,diawara,15.022,-12.5437,37.150000000000006,5,93,13.69,SN,1707404104
379,camoapa,12.3839,-85.5116,22.12222222222222,56,78,16.84,NI,1707404104
380,neiafu,-18.65,-173.9833,25.377777777777784,94,20,0.0,TO,1707404105
381,madalena,41.2162,-8.3345,13.322222222222221,95,100,17.18,PT,1707404105
382,crane,31.3974,-102.3501,8.911111111111111,51,23,10.8,US,1707404105
383,fort-shevchenko,44.5086,50.263,7.561111111111111,81,15,12.68,KZ,1707404105
384,pisco,-13.7,-76.2167,27.027777777777782,74,6,5.75,PE,1707404106
385,kaa-khem,51.6833,94.7333,-25.88888888888889,93,44,2.93,RU,1707404106
386,port macquarie,-31.4333,152.9167,18.82777777777778,84,51,10.54,AU,1707404063
387,farafangana,-22.8167,47.8333,24.36111111111111,93,99,12.21,MG,1707404106
388,zharkent,44.1628,80.0,-1.527777777777778,94,100,5.95,KZ,1707404106
389,lazaro cardenas,17.9583,-102.2,26.300000000000004,63,93,1.9,MX,1707404107
390,zheleznogorsk,52.331,35.3711,-11.100000000000001,91,9,6.26,RU,1707404107
391,ar rutbah,33.0381,40.2848,14.622222222222224,36,33,7.96,IQ,1707404107
392,sinabang,2.4803,96.3801,27.277777777777775,80,82,3.27,ID,1707404107
393,yerofey pavlovich,53.9667,121.9667,-21.62777777777778,96,98,3.6,RU,1707404107
394,akaa,61.1667,23.8667,-16.56111111111111,99,75,3.83,FI,1707404107
395,ambon,-3.6954,128.1814,29.92777777777778,95,40,3.44,ID,1707404107
396,tinsukia,27.5,95.3667,14.53888888888889,74,32,0.85,IN,1707404107
397,atbasar,51.8,68.3333,-0.0611111111111108,97,100,24.02,KZ,1707404108
398,myeik,12.4333,98.6,24.61111111111111,80,6,2.82,MM,1707404108
399,guerrero negro,27.9769,-114.0611,13.972222222222221,70,80,6.96,MX,1707403937
400,mariental,-24.6333,17.9667,35.6,17,79,8.05,NA,1707404108
401,pacific grove,36.6177,-121.9166,6.761111111111112,91,0,4.0,US,1707404108
402,hadibu,12.65,54.0333,25.188888888888894,77,4,13.91,YE,1707404108
403,vilyuchinsk,52.9306,158.4028,-7.85,86,100,5.66,RU,1707404109
404,ghanzi,-21.5667,21.7833,36.550000000000004,16,73,6.73,BW,1707404109
405,masterton,-40.9597,175.6575,14.93888888888889,95,100,3.87,NZ,1707403817
406,pimentel,-6.8367,-79.9342,27.16111111111111,74,40,10.36,PE,1707404109
407,puerto lempira,15.2667,-83.7667,26.07777777777778,78,40,0.0,HN,1707403813
408,benguela,-12.5763,13.4055,30.08888888888889,67,74,9.13,AO,1707404110
409,duba,27.3513,35.6901,23.11111111111111,39,0,9.24,SA,1707404110
410,caleta olivia,-46.4393,-67.5281,19.42222222222222,36,0,9.22,AR,1707404110
411,kruisfontein,-34.0033,24.7314,21.599999999999998,55,39,15.52,ZA,1707404110
412,ungsang-nodongjagu,42.3578,130.4622,-3.172222222222223,48,8,2.26,KP,1707404110
413,kalemie,-5.9475,29.1947,26.01111111111111,71,0,3.36,CD,1707404110
414,emiliano zapata,18.8333,-99.1833,22.027777777777782,55,0,0.0,MX,1707404111
415,dakhla,23.6848,-15.958,31.01111111111111,9,11,8.05,EH,1707404111
416,freetown,8.484,-13.2299,31.838888888888892,48,3,11.5,SL,1707404111
417,kill devil hills,36.0307,-75.676,7.2111111111111095,83,0,9.22,US,1707404111
418,dzerzhinskoye,56.8344,95.2283,-15.7,98,67,2.77,RU,1707404111
419,solnechnyy,50.7214,136.6319,-18.18888888888889,98,100,2.28,RU,1707404111
420,mili,6.0815,171.735,27.772222222222222,75,99,23.02,MH,1707404111
421,yasnyy,51.0333,59.8742,-0.5499999999999992,99,100,26.71,RU,1707404112
422,pontianak,-0.0333,109.3333,25.98888888888889,94,40,0.0,ID,1707404112
423,lima duarte,-21.8425,-43.7931,25.95,73,95,3.06,BR,1707404112
424,tejen,37.3834,60.5054,14.761111111111111,38,44,6.04,TM,1707404112
425,talcahuano,-36.7167,-73.1167,17.822222222222223,55,0,13.8,CL,1707404112
426,griffith,41.5284,-87.4237,10.92222222222222,65,0,18.41,US,1707404041
427,san luis de la loma,17.2706,-100.8939,26.211111111111116,67,2,0.78,MX,1707404112
428,vorgashor,67.5833,63.95,-8.222222222222223,80,100,13.78,RU,1707404113
429,khajuraho group of monuments,24.85,79.9333,15.13888888888889,28,40,5.1,IN,1707404113
430,paka,4.6374,103.4368,27.961111111111112,78,22,5.75,MY,1707404113
431,daru,-9.0763,143.2092,24.86111111111111,95,100,8.3,PG,1707404113
432,padangsidempuan,1.3667,99.2667,22.738888888888894,99,96,1.48,ID,1707404113
433,muroto-misakicho,33.2833,134.15,8.68888888888889,65,100,15.32,JP,1707404114
434,saldanha,-33.0117,17.9442,25.02777777777778,64,3,13.49,ZA,1707404114
435,fort bragg,35.139,-79.006,10.46111111111111,70,0,1.01,US,1707404114
436,lewistown,40.5992,-77.5714,5.911111111111111,75,0,0.0,US,1707404114
437,cajamarca,-7.1638,-78.5003,17.03888888888889,72,40,2.3,PE,1707404114
438,necochea,-38.5473,-58.7368,21.85,83,100,10.58,AR,1707404114
439,pagar alam,-4.0167,103.2667,21.46111111111111,97,100,3.24,ID,1707404115
440,castillos,-34.1667,-53.8333,32.22222222222222,43,29,8.12,UY,1707404115
441,st. john's,47.5649,-52.7093,0.15000000000000174,92,100,20.0,CA,1707404115
442,chaplygin,53.2432,39.9629,-13.57777777777778,92,22,10.16,RU,1707404115
443,bakchar,57.0186,82.0711,-6.127777777777779,92,51,8.46,RU,1707404115
444,yatou,37.15,122.3833,-3.6277777777777787,86,99,5.75,CN,1707404116
445,hammerfest,70.6634,23.6821,-11.75,72,59,2.3,NO,1707404116
446,kaiapoi,-43.3783,172.6401,14.47777777777778,92,100,3.44,NZ,1707404116
447,spanish springs,39.6491,-119.7074,-2.2500000000000004,87,20,0.0,US,1707404116
448,ta`u,-14.2336,-169.5144,28.049999999999997,82,100,20.78,AS,1707404116
449,malanje,-9.5402,16.341,25.900000000000002,69,19,3.74,AO,1707404116
450,banda aceh,5.5577,95.3222,26.538888888888888,84,61,11.01,ID,1707404117
451,taltal,-25.4,-70.4833,22.36111111111111,75,12,4.47,CL,1707404117
452,warman,52.3168,-106.5679,-4.388888888888888,92,100,8.05,CA,1707404117
453,nago,26.5881,127.9761,17.23888888888889,75,97,10.31,JP,1707404117
454,douz,33.4663,9.0203,19.827777777777776,26,4,9.86,TN,1707404117
455,manokwari,-0.8667,134.0833,26.211111111111116,86,100,7.27,ID,1707404117
456,sarangani,5.4033,125.4636,27.45,80,34,17.18,PH,1707404117
457,papao,-17.75,-149.55,27.822222222222223,90,100,25.77,PF,1707404117
458,badagry,6.4167,2.8833,30.81111111111111,46,41,9.8,NG,1707404058
459,cooranbong,-33.0833,151.4333,20.32777777777778,78,96,4.76,AU,1707404118
460,mazagao,-0.115,-51.2894,32.027777777777786,68,62,4.97,BR,1707404118
461,san juan bautista,-14.0108,-75.7358,28.077777777777783,59,5,4.14,PE,1707404118
462,rio verde de mato grosso,-18.9181,-54.8442,33.31111111111111,49,35,4.38,BR,1707403935
463,santa ana,33.7456,-117.8678,11.450000000000001,81,75,4.61,US,1707404118
464,ixtapa,20.7,-105.2,20.677777777777777,63,6,1.01,MX,1707404118
465,trairi,-3.2778,-39.2689,31.26111111111111,61,31,13.27,BR,1707403976
466,blackwater,-23.5833,148.8833,24.86111111111111,64,71,9.31,AU,1707404119
467,jawf al maqbabah,13.8378,45.8349,21.227777777777774,58,3,9.64,YE,1707404119
468,tchintabaraden,15.8969,5.7985,29.711111111111116,7,0,8.93,NE,1707404119
469,tsiombe,-25.3,45.4833,26.100000000000005,80,91,7.31,MG,1707404119
470,birzebbuga,35.8258,14.5269,16.377777777777776,72,40,17.27,MT,1707404119
471,oriximina,-1.7656,-55.8661,34.12222222222223,44,28,4.72,BR,1707404119
472,esperantinopolis,-4.8667,-44.7083,31.638888888888893,59,100,5.68,BR,1707404119
473,nadi,-17.8,177.4167,25.0,94,40,4.61,FJ,1707404120
474,bamor kalan,24.9,78.15,15.338888888888889,24,45,5.68,IN,1707404120
475,auki,-8.7676,160.7034,26.23888888888889,88,100,12.97,SB,1707404120
476,bada,51.392,109.8717,-18.172222222222224,96,13,3.31,RU,1707404120
477,fuli,46.7217,131.1394,-15.850000000000001,94,29,6.02,CN,1707404120
478,mersing,2.4312,103.8405,27.950000000000003,83,20,4.61,MY,1707404120
479,jose pedro varela,-33.45,-54.5333,37.111111111111114,24,38,7.45,UY,1707404120
480,bucak,37.4592,30.595,12.288888888888888,94,100,4.81,TR,1707404121
481,richards bay,-28.783,32.0377,26.45,65,38,9.57,ZA,1707404121
482,rodez,44.5,2.5833,14.822222222222223,67,0,13.8,FR,1707404121
483,guangming,45.3333,122.7833,-9.527777777777777,59,100,7.02,CN,1707404121
484,deoli,25.75,75.3833,16.12777777777778,28,100,2.1,IN,1707404121
485,cabo san lucas,22.8909,-109.9124,19.72777777777778,70,81,2.66,MX,1707404011
486,guatrache,-37.6678,-63.5302,28.17222222222222,58,100,8.28,AR,1707404121
487,la gi,10.6667,107.7833,24.35,88,39,7.16,VN,1707404122
488,whakatane,-37.9585,176.9854,19.322222222222223,92,100,5.28,NZ,1707404122
489,palmer,42.1584,-72.3287,5.711111111111112,67,20,0.0,US,1707404122
490,carnarvon,-24.8667,113.6333,25.67222222222222,75,0,14.41,AU,1707404122
491,inari,68.906,27.0288,-20.88888888888889,100,62,3.58,FI,1707404122
492,tadine,-21.55,167.8833,24.72777777777778,80,99,15.23,NC,1707404122
493,zeya,53.75,127.2667,-21.4,94,5,4.63,RU,1707404122
494,ecoporanga,-18.3733,-40.8306,23.211111111111112,89,100,1.92,BR,1707404126
495,mossel bay,-34.1831,22.146,23.96111111111111,63,16,11.48,ZA,1707404126
496,selfoss,63.9331,-20.9971,-11.63888888888889,78,30,9.17,IS,1707404126
497,horta,38.5333,-28.6333,16.8,85,40,25.99,PT,1707404126
498,port alberni,49.2413,-124.8028,4.911111111111113,96,67,1.1,CA,1707404127
499,fisterra,42.9049,-9.2629,15.422222222222222,87,100,28.14,ES,1707404127
500,caico,-6.4583,-37.0978,37.027777777777786,28,10,9.86,BR,1707404058
501,nabire,-3.3667,135.4833,26.022222222222226,84,98,2.28,ID,1707404127
502,yemetsk,63.4721,41.7941,-13.12777777777778,94,100,9.82,RU,1707404127
503,es castell,39.8795,4.2854,16.377777777777776,77,0,14.97,ES,1707404127
504,maceio,-9.6658,-35.7353,33.68888888888889,55,40,11.5,BR,1707404127
505,el calafate,-50.3408,-72.2768,11.427777777777779,64,97,9.24,AR,1707404127
506,ola,59.5833,151.2833,-26.561111111111114,88,20,8.3,RU,1707404128
507,ohara,35.25,140.3833,7.888888888888891,67,100,9.35,JP,1707404128
508,laascaanood,8.4774,47.3597,28.57777777777778,21,91,9.89,SO,1707404128
509,rikaze,29.25,88.8833,-1.4999999999999998,16,0,9.15,CN,1707404128
510,mikkeli,61.6886,27.2723,-16.93888888888889,78,0,3.44,FI,1707404128
511,firminopolis,-16.5819,-50.305,29.850000000000005,51,84,4.88,BR,1707404128
512,santa cruz,-17.8,-63.1667,27.7,74,75,16.11,BO,1707404128
513,bengkulu,-3.8004,102.2655,26.100000000000005,84,91,3.0,ID,1707404128
514,newman,37.3138,-121.0208,7.227777777777777,90,88,3.04,US,1707404129
515,semporna,4.4818,118.6112,26.088888888888885,85,90,5.5,MY,1707404129
516,san fernando de apure,7.8878,-67.4724,29.961111111111116,67,100,7.02,VE,1707404129
517,humberto de campos,-2.5983,-43.4611,30.66111111111111,64,91,10.76,BR,1707404129
518,city of balikpapan,-1.242,116.8942,28.972222222222225,84,40,2.3,ID,1707404129
519,trinidad,-14.8333,-64.9,26.98888888888889,83,75,6.91,BO,1707404129
520,swift current,50.2834,-107.8014,-6.55,93,100,14.97,CA,1707404129
521,cill airne,52.05,-9.5167,12.027777777777777,94,75,9.22,IE,1707404129
522,malango,-2.9627,119.9001,20.538888888888888,97,82,2.3,ID,1707404130
523,markaz-e hukumat-e darweshan,31.1323,64.1934,15.227777777777776,18,0,9.46,AF,1707404130
524,frederico westphalen,-27.3592,-53.3944,31.300000000000004,44,48,3.13,BR,1707404130
525,paso de los toros,-32.8167,-56.5167,38.488888888888894,26,34,8.19,UY,1707404130
526,graham,47.0529,-122.2943,4.8888888888888875,94,100,0.0,US,1707404130
527,fortaleza,-3.7227,-38.5247,32.07222222222222,81,75,18.41,BR,1707403918
528,magistral'nyy,56.1725,107.4458,-7.572222222222222,98,100,2.26,RU,1707404130
529,sao raimundo nonato,-9.0153,-42.6994,32.07222222222222,42,77,6.53,BR,1707404130
530,lorengau,-2.0226,147.2712,28.038888888888888,80,100,10.4,PG,1707404130
531,qarazhal,48.0078,70.7903,-0.5999999999999991,95,100,21.43,KZ,1707404131
532,uray,60.1247,64.7758,-6.738888888888889,93,100,7.0,RU,1707404131
533,kimberley,-28.7323,24.7623,31.827777777777783,12,0,9.22,ZA,1707404131
534,tegina,10.0706,6.1906,38.22222222222222,9,9,0.13,NG,1707404131
535,picota,-6.9197,-76.3304,28.272222222222222,71,73,1.25,PE,1707404131
536,chabahar,25.2919,60.643,21.627777777777784,54,0,9.66,IR,1707404131
537,cambridge,43.3601,-80.3127,1.722222222222223,89,75,3.44,CA,1707404131
538,midelt,32.6852,-4.7451,17.13888888888889,16,80,14.56,MA,1707404131
539,narok,-1.0783,35.8601,22.461111111111116,55,53,12.1,KE,1707404131
540,belyy yar,53.6039,91.3903,-12.061111111111112,92,100,0.0,RU,1707404132
541,acara,-1.9608,-48.1967,31.85,61,89,5.23,BR,1707404132
542,dongsheng,39.8161,109.9776,-9.288888888888888,78,98,8.52,CN,1707404132
543,lerwick,60.1545,-1.1494,0.9999999999999984,57,58,11.9,GB,1707404132
544,okha,53.5739,142.9478,-20.250000000000004,100,86,8.68,RU,1707404132
545,san antonio de pale,-1.4014,5.6325,28.42222222222222,75,83,7.87,GQ,1707404132
546,bhimunipatnam,17.8833,83.4333,25.72777777777778,85,3,5.7,IN,1707404132
547,mragowo,53.8644,21.3051,0.9999999999999984,65,100,8.16,PL,1707404133
548,shibetsu,43.659,145.132,-6.722222222222223,88,36,7.63,JP,1707404069
549,aykhal,66.0,111.5,-30.1,100,95,5.48,RU,1707404133
550,port augusta,-32.5,137.7667,20.67222222222222,57,0,14.56,AU,1707404133
551,happy valley-goose bay,53.3168,-60.3315,-7.827777777777778,86,100,3.44,CA,1707404133
552,aripuana,-9.1667,-60.6333,33.6,52,100,1.9,BR,1707404133
553,tarko-sale,64.9225,77.785,-5.322222222222221,93,100,17.94,RU,1707404133
554,margate,51.3813,1.3862,11.600000000000001,94,100,14.0,GB,1707404134
555,andovoranto,-18.95,49.1,27.05,84,100,3.76,MG,1707404134
556,yanykurgan,43.915,67.2481,2.550000000000002,84,9,7.74,KZ,1707404134
557,pandan,14.0453,124.1694,24.711111111111116,86,3,4.54,PH,1707404134
558,natal,-5.795,-35.2094,32.361111111111114,62,75,16.11,BR,1707404012
559,hassi messaoud,31.6804,6.0729,23.922222222222224,19,0,4.61,DZ,1707404134
560,saint-francois,46.4154,3.9054,15.68888888888889,61,0,9.22,FR,1707404134
561,sabha,27.0377,14.4283,20.6,19,0,6.31,LY,1707404134
562,susuman,62.7833,148.1667,-36.87222222222223,100,91,2.62,RU,1707404135
563,yuncheng,35.0231,110.9928,0.1999999999999997,82,32,4.65,CN,1707404135
564,tsetserleg,47.475,101.4542,-19.08888888888889,81,1,6.31,MN,1707404135
565,pindwara,24.8,73.0667,15.572222222222223,24,41,5.93,IN,1707404135
566,lupiro,-8.3833,36.6667,29.961111111111116,78,8,3.22,TZ,1707404135
567,tazovsky,67.4667,78.7,-9.911111111111111,93,100,14.67,RU,1707404135
568,dembi dolo,8.5333,34.8,23.049999999999997,45,70,4.38,ET,1707404135
569,togur,58.3631,82.8265,-7.261111111111112,95,84,7.09,RU,1707404135
570,qinzhou,21.95,108.6167,8.822222222222225,71,100,14.43,CN,1707404136
571,huarmey,-10.0681,-78.1522,25.98888888888889,77,92,6.33,PE,1707404136
572,ocean city,39.2776,-74.5746,7.877777777777778,76,10,2.06,US,1707404136
573,riberalta,-10.9833,-66.1,27.11111111111111,83,75,0.0,BO,1707404136
574,ingeniero guillermo n. juarez,-23.9,-61.85,36.42777777777778,36,98,7.94,AR,1707404136
575,alto araguaia,-17.3147,-53.2153,31.411111111111115,49,80,5.97,BR,1707404136
576,jayapura,-2.5333,140.7,23.661111111111115,92,100,6.15,ID,1707404136
577,punta cana,18.5818,-68.4043,24.87222222222222,69,20,8.05,DO,1707403891
578,suva,-18.1416,178.4415,24.711111111111116,94,40,3.44,FJ,1707404136
579,betare oya,5.6,14.0833,35.838888888888896,13,86,6.38,CM,1707404136
580,mountain home,43.133,-115.6912,-0.28888888888888864,92,40,6.91,US,1707404061
581,fangshan,39.6983,115.9925,0.6722222222222227,44,4,1.92,CN,1707404137
582,kyzyl-mazhalyk,51.1333,90.6,-18.377777777777776,97,100,3.0,RU,1707404137
583,puerto colombia,10.9878,-74.9547,27.05,66,76,16.58,CO,1707404137
