City_ID,City,Lat,Lng,Max Temp,Humidity,Cloudiness,Wind Speed,Country,Date
0,kyshtovka,56.555,76.6271,5.34,96,100,8.01,RU,1701815878
1,neiafu,-18.65,-173.9833,86.68,66,40,11.5,TO,1701815878
2,ambon,-3.6954,128.1814,78.94,83,40,5.75,ID,1701815878
3,hermanus,-34.4187,19.2345,64.26,73,30,20.89,ZA,1701815878
4,mount gambier,-37.8333,140.7667,63.93,49,96,1.97,AU,1701815588
5,archangelos,36.2149,28.1149,61.3,82,42,3.83,GR,1701815878
6,agalatovo,60.2195,30.2739,4.15,100,96,1.54,RU,1701815878
7,port mathurin,-19.6833,63.4167,78.37,81,76,14.76,MU,1701815878
8,waitangi,-43.9535,-176.5597,56.82,71,100,11.01,NZ,1701815708
9,gizo,-8.103,156.8419,81.9,84,100,24.49,SB,1701815879
10,saint-pierre,-21.3393,55.4781,70.57,78,0,6.91,RE,1701815879
11,west end,26.6833,-78.9667,76.98,81,100,8.55,BS,1701815879
12,whitehorse,60.7161,-135.0538,32.77,86,75,19.57,CA,1701815879
13,beira,-19.8436,34.8389,78.89,94,20,6.91,MZ,1701815879
14,luchegorsk,46.4764,134.2569,17.69,91,100,2.46,RU,1701815879
15,elliot lake,46.3834,-82.6331,20.12,93,32,2.68,CA,1701815879
16,pontes e lacerda,-15.2261,-59.3353,73.42,88,100,1.61,BR,1701815619
17,bergama,39.1207,27.1805,51.85,88,93,4.16,TR,1701815880
18,port alfred,-33.5906,26.891,64.18,80,100,1.01,ZA,1701815631
19,albany,42.6001,-73.9662,33.64,85,100,2.8,US,1701815606
20,utrik,11.2278,169.8474,81.77,78,52,20.67,MH,1701815880
21,aasiaat,68.7098,-52.8699,-3.64,93,29,8.48,GL,1701815880
22,nguigmi,14.2495,13.1092,74.21,21,99,11.92,NE,1701815880
23,talnakh,69.4865,88.3972,-27.72,82,6,2.86,RU,1701815880
24,remire-montjoly,4.9167,-52.2667,82.44,78,0,3.44,GF,1701815880
25,kosikha,53.3617,84.5822,28.51,98,100,15.43,RU,1701815880
26,puerto natales,-51.7236,-72.4875,48.83,53,2,9.51,CL,1701815880
27,wailua homesteads,22.0669,-159.378,81.03,81,40,19.57,US,1701815880
28,thompson,55.7435,-97.8558,21.36,93,100,6.91,CA,1701815881
29,bredasdorp,-34.5322,20.0403,64.02,69,80,15.84,ZA,1701815756
30,ust-nera,64.5667,143.2,-54.08,98,74,4.83,RU,1701815881
31,happy valley-goose bay,53.3168,-60.3315,16.11,73,100,8.05,CA,1701815881
32,richards bay,-28.783,32.0377,68.92,85,100,9.13,ZA,1701815881
33,cururupu,-1.8283,-44.8683,77.88,87,91,2.64,BR,1701815881
34,adamstown,-25.066,-130.1015,73.02,80,100,13.65,PN,1701815725
35,nuku'alofa,-21.1333,-175.2,84.54,74,75,12.66,TO,1701815881
36,ushuaia,-54.8,-68.3,44.26,61,75,37.98,AR,1701815728
37,chonchi,-42.6128,-73.8092,69.01,61,1,5.48,CL,1701815743
38,yanam,16.7333,82.2167,76.75,90,100,7.67,IN,1701815642
39,paita,-5.0892,-81.1144,70.88,79,83,16.37,PE,1701815882
40,petropavlovsk-kamchatsky,53.0452,158.6483,23.59,87,20,17.0,RU,1701815882
41,tiksi,71.6872,128.8694,-0.96,91,100,14.14,RU,1701815739
42,catriel,-37.8791,-67.7956,68.29,51,81,7.4,AR,1701815883
43,bilibino,68.0546,166.4372,-21.84,99,100,3.83,RU,1701815883
44,anadyr,64.75,177.4833,3.7,84,100,11.18,RU,1701815883
45,nova sintra,14.8667,-24.7167,71.31,75,81,21.97,CV,1701815883
46,kudahuvadhoo,2.6708,72.8944,82.11,78,100,9.08,MV,1701815884
47,port moresby,-9.4431,147.1797,81.82,78,40,3.44,PG,1701815814
48,kingston,17.997,-76.7936,85.15,78,20,17.27,JM,1701815884
49,west island,-12.1568,96.8225,78.78,83,100,6.91,CC,1701815884
50,invercargill,-46.4,168.35,62.89,47,85,3.85,NZ,1701815884
51,bamboo flat,11.7,92.7167,77.09,94,40,1.14,IN,1701815884
52,vorgashor,67.5833,63.95,-22.7,96,28,3.15,RU,1701815705
53,hawaiian paradise park,19.5933,-154.9731,80.87,74,67,1.99,US,1701815885
54,kol'chugino,56.3,39.3833,-2.09,100,77,3.56,RU,1701815885
55,port-aux-francais,-49.35,70.2167,42.62,99,100,20.76,TF,1701815885
56,hengchun,22.0042,120.7439,72.5,81,100,8.5,TW,1701815885
57,san patricio,28.017,-97.5169,74.12,55,100,5.28,US,1701815727
58,badger,64.8,-147.5333,-0.15,78,100,3.44,US,1701815886
59,ginir,7.1333,40.7,54.63,51,6,2.98,ET,1701815886
60,norfolk,42.1668,-71.2495,37.08,74,99,1.01,US,1701815886
61,kapuskasing,49.4169,-82.4331,21.29,86,100,2.3,CA,1701815741
62,jamestown,42.097,-79.2353,34.02,100,100,5.75,US,1701815887
63,greymouth,-42.4667,171.2,59.67,71,100,6.89,NZ,1701815887
64,puerto ayora,-0.7393,-90.3518,82.36,89,57,3.0,EC,1701815887
65,nuuk,64.1835,-51.7216,27.21,43,40,16.11,GL,1701815760
66,namibe,-15.1961,12.1522,74.62,85,97,3.56,AO,1701815791
67,kailua-kona,19.6406,-155.9956,82.36,79,40,13.8,US,1701815673
68,pitimbu,-7.4706,-34.8086,81.19,72,1,11.99,BR,1701815888
69,bethel,41.3712,-73.414,39.76,70,100,3.44,US,1701815888
70,kalecik,40.0972,33.4083,45.72,89,0,2.17,TR,1701815888
71,maxixe,-23.8597,35.3472,72.77,76,24,8.28,MZ,1701815888
72,shangzhi,45.2167,127.9667,31.05,93,100,9.57,CN,1701815888
73,punta arenas,-53.15,-70.9167,48.31,43,20,43.73,CL,1701815889
74,laguna,38.421,-121.4238,68.18,62,0,3.44,US,1701815889
75,ignalina,55.35,26.1667,14.83,94,97,3.67,LT,1701815889
76,morehead city,34.7229,-76.726,55.44,84,0,5.75,US,1701815889
77,carnarvon,-24.8667,113.6333,75.83,71,35,22.1,AU,1701815889
78,mwene-ditu,-7.0,23.45,64.76,98,90,1.12,CD,1701815890
79,quincy,42.2529,-71.0023,37.45,69,100,8.05,US,1701815890
80,port lincoln,-34.7333,135.8667,66.52,68,96,11.14,AU,1701815890
81,lata,40.1629,-8.3327,47.07,90,91,3.56,PT,1701815890
82,thinadhoo,0.5333,72.9333,82.47,76,89,9.48,MV,1701815890
83,ilulissat,69.2167,-51.1,12.22,62,8,8.05,GL,1701815728
84,lazaro cardenas,17.9583,-102.2,83.26,64,100,5.77,MX,1701815890
85,kenai,60.5544,-151.2583,29.14,85,75,3.44,US,1701815603
86,bubaque,11.2833,-15.8333,82.87,66,14,12.24,GW,1701815891
87,stanley,54.868,-1.6985,32.02,94,40,2.3,GB,1701815891
88,lompoc,34.6391,-120.4579,84.78,22,0,6.91,US,1701815891
89,kishtwar,33.3167,75.7667,37.4,31,0,6.85,IN,1701815891
90,fale old settlement,-9.3852,-171.2468,83.68,77,52,10.33,TK,1701815727
91,hopelchen,19.7667,-89.85,83.16,52,59,3.24,MX,1701815892
92,susuman,62.7833,148.1667,-57.01,99,81,0.36,RU,1701815777
93,petawawa,45.9001,-77.3328,26.19,85,100,2.3,CA,1701815892
94,qaqortoq,60.7167,-46.0333,29.57,71,100,7.78,GL,1701815892
95,margaret river,-33.95,115.0667,58.15,78,10,8.46,AU,1701815892
96,atafu village,-8.5421,-172.5159,83.62,76,85,9.33,TK,1701815893
97,blackmans bay,-43.0167,147.3167,62.73,48,4,3.0,AU,1701815893
98,ribeira grande,38.5167,-28.7,66.78,94,100,27.0,PT,1701815710
99,iskateley,67.6803,53.1512,-20.97,94,32,7.0,RU,1701815893
100,magalia,39.8121,-121.5783,59.14,76,95,2.46,US,1701815893
101,gaya,24.7833,85.0,70.09,57,100,2.06,IN,1701815840
102,ullal,12.8,74.85,76.15,94,96,3.44,IN,1701815893
103,suva,-18.1416,178.4415,85.48,70,40,10.36,FJ,1701815894
104,keflavik,64.0049,-22.5624,34.23,69,0,19.57,IS,1701815894
105,afaahiti,-17.75,-149.2833,76.87,83,100,16.31,PF,1701815709
106,margate,51.3813,1.3862,41.7,88,93,8.01,GB,1701815894
107,isafjordur,66.0755,-23.124,27.73,87,35,7.29,IS,1701815894
108,amahai,-3.3333,128.9167,83.3,72,83,1.21,ID,1701815895
109,sidney,-33.8679,151.2073,80.31,66,0,17.27,AU,1701815733
110,papatowai,-46.5619,169.4708,62.92,59,66,4.18,NZ,1701815736
111,ormara,25.2088,64.6357,73.51,47,9,4.54,PK,1701815895
112,tongouson,5.0214,120.1328,81.64,79,97,5.68,PH,1701815895
113,arteche,12.2645,125.4048,80.46,87,98,7.18,PH,1701815895
114,enewetak,11.3474,162.3373,82.36,70,88,18.45,MH,1701815895
115,quiberon,47.4841,-3.1196,46.08,80,86,3.0,FR,1701815896
116,port elizabeth,-33.918,25.5701,63.1,71,100,6.91,ZA,1701815896
117,walvis bay,-22.9575,14.5053,62.1,82,15,10.36,NA,1701815896
118,fortuna,40.5982,-124.1573,68.94,76,40,1.01,US,1701815896
119,grytviken,-54.2811,-36.5092,39.92,94,99,18.61,GS,1701815897
120,klyuchi,52.2667,79.1667,37.04,94,100,15.23,RU,1701815897
121,darovskoy,58.77,47.9564,3.7,98,95,3.85,RU,1701815897
122,tralee,52.2704,-9.7026,42.42,87,100,12.35,IE,1701815874
123,brokopondo,4.75,-55.1667,78.37,86,84,8.3,SR,1701815897
124,edinburgh of the seven seas,-37.0676,-12.3116,57.7,92,98,16.67,SH,1701815897
125,amga,60.8953,131.9608,-56.2,100,45,1.63,RU,1701815796
126,figuig (centre),32.1089,-1.2286,55.87,43,100,3.96,MA,1701815898
127,haiku-pauwela,20.9219,-156.3051,82.42,59,20,20.71,US,1701815898
128,selfoss,63.9331,-20.9971,25.05,68,42,10.92,IS,1701815898
129,kamikawa,43.84,142.7711,19.67,87,6,4.16,JP,1701815898
130,guadalupe y calvo,26.1,-106.9667,60.3,27,0,4.03,MX,1701815898
131,yellowknife,62.456,-114.3525,21.42,99,100,11.5,CA,1701815752
132,dingwall,57.5953,-4.4272,32.88,94,8,2.77,GB,1701815899
133,belyy yar,53.6039,91.3903,15.69,92,75,0.0,RU,1701815899
134,motygino,58.1831,94.7592,-22.22,94,100,5.99,RU,1701815899
135,cockburn town,21.4612,-71.1419,81.14,78,6,14.09,TC,1701815789
136,avarua,-21.2078,-159.775,82.45,74,75,18.41,CK,1701815899
137,iqaluit,63.7506,-68.5145,13.73,79,75,2.3,CA,1701815727
138,rouissat,31.9243,5.3502,53.67,47,40,4.61,DZ,1701815900
139,marsh harbour,26.5412,-77.0636,75.81,80,100,3.49,BS,1701815732
140,kerikeri,-35.2268,173.9474,70.92,85,64,2.82,NZ,1701815900
141,santo tome,-31.6627,-60.7653,75.02,77,100,8.01,AR,1701815900
142,san lawrenz,36.0553,14.204,60.85,69,6,26.04,MT,1701815901
143,quatre cocos,-20.2078,57.7625,76.08,79,16,7.05,MU,1701815901
144,kapa'a,22.0752,-159.319,82.38,81,40,19.57,US,1701815901
145,bom jardim,-7.7958,-35.5872,74.75,70,4,11.16,BR,1701815901
146,sovetskiy,61.3614,63.5842,-16.11,94,100,8.99,RU,1701815901
147,college,64.8569,-147.8028,-0.08,80,100,3.44,US,1701815901
148,port-gentil,-0.7193,8.7815,78.76,94,20,2.3,GA,1701815902
149,paty do alferes,-22.4286,-43.4186,73.8,96,77,3.33,BR,1701815902
150,serenje,-13.2325,30.2352,63.48,82,6,1.74,ZM,1701815902
151,el granada,37.5027,-122.4694,69.93,76,0,6.91,US,1701815902
152,codrington,-38.2667,141.9667,62.29,54,100,5.73,AU,1701815737
153,sitka,57.0531,-135.33,48.09,66,75,28.77,US,1701815709
154,kokstad,-30.5472,29.4241,52.79,97,100,3.06,ZA,1701815903
155,oranjemund,-28.55,16.4333,61.05,93,16,10.47,NA,1701815903
156,georgetown,5.4112,100.3354,78.73,95,20,5.75,MY,1701815903
157,hasaki,35.7333,140.8333,48.29,85,100,16.02,JP,1701815903
158,abepura,-2.6333,140.5833,79.61,89,20,2.3,ID,1701815903
159,rio de janeiro,-22.9028,-43.2075,80.82,85,75,11.5,BR,1701815616
160,fritzlar,51.1333,9.2833,38.68,87,75,5.75,DE,1701815904
161,ancud,-41.8697,-73.8203,58.59,75,19,3.27,CL,1701815904
162,magadan,59.5667,150.8,-6.83,70,100,7.92,RU,1701815904
163,bengkulu,-3.8004,102.2655,74.32,93,100,4.03,ID,1701815904
164,shagonar,51.5333,92.8,10.94,94,100,2.1,RU,1701815904
165,redencao,-4.2258,-38.7306,78.49,85,55,5.46,BR,1701815904
166,suoyarvi,62.0833,32.35,8.28,96,100,0.51,RU,1701815905
167,cabo san lucas,22.8909,-109.9124,84.61,57,0,12.66,MX,1701815645
168,kavaratti,10.5669,72.642,82.04,71,100,7.34,IN,1701815905
169,maputo,-25.9653,32.5892,74.88,69,75,14.97,MZ,1701815905
170,along,28.1667,94.7667,53.71,72,74,1.68,IN,1701815905
171,narok,-1.0783,35.8601,59.23,84,68,1.95,KE,1701815906
172,spring creek,40.7266,-115.5859,49.69,55,25,1.68,US,1701815906
173,mejit,10.2753,170.8646,81.81,79,72,21.72,MH,1701815906
174,stepnoye,51.4,46.8667,17.58,95,11,4.88,RU,1701815906
175,prince rupert,54.3161,-130.3201,47.89,82,100,21.85,CA,1701815740
176,vila velha,-20.3297,-40.2925,80.55,85,0,12.66,BR,1701815906
177,merizo village,13.2658,144.6691,82.96,86,34,12.1,GU,1701815906
178,raghunathpur,23.55,86.6667,68.88,69,100,2.59,IN,1701815906
179,strezhevoy,60.7333,77.5889,-15.03,88,28,10.0,RU,1701815907
180,tura,25.5198,90.2201,63.12,69,100,2.46,IN,1701815907
181,kamina,-8.7386,24.9906,62.71,98,99,3.58,CD,1701815907
182,tartouss,34.889,35.8866,63.86,65,100,12.77,SY,1701815907
183,ust'-ilimsk,58.0006,102.6619,-26.55,100,86,1.99,RU,1701815907
184,katsuura,35.1333,140.3,53.55,84,100,16.02,JP,1701815907
185,flying fish cove,-10.4217,105.6791,76.68,88,100,6.91,CX,1701815908
186,nar'yan-mar,67.6713,53.087,-20.88,94,32,7.0,RU,1701815908
187,mikkeli,61.6886,27.2723,10.51,85,100,2.3,FI,1701815908
188,tazovsky,67.4667,78.7,-24.18,98,96,5.23,RU,1701815908
189,ilomantsi,62.6716,30.9328,8.94,97,100,1.21,FI,1701815908
190,grand-popo,6.2804,1.8225,82.18,77,52,10.27,BJ,1701815908
191,boa vista,2.8197,-60.6733,87.78,51,40,5.75,BR,1701815908
192,senanga,-16.1167,23.2667,79.63,35,86,6.58,ZM,1701815909
193,trincomalee,8.5711,81.2335,78.58,84,86,9.44,LK,1701815909
194,moanda,-1.5575,13.2178,69.76,98,75,1.61,GA,1701815909
195,fort st. john,56.2499,-120.8529,44.49,53,20,25.32,CA,1701815909
196,kisangani,0.5167,25.2,69.22,98,82,2.35,CD,1701815909
197,erenhot,43.6475,111.9767,14.11,62,43,9.71,CN,1701815910
198,dudinka,69.4058,86.1778,-33.32,98,22,5.01,RU,1701815910
199,boysun,38.2061,67.1986,46.0,29,0,0.67,UZ,1701815910
200,hithadhoo,-0.6,73.0833,82.18,78,100,11.07,MV,1701815742
201,olonkinbyen,70.9221,-8.7187,28.29,77,84,13.6,SJ,1701815910
202,guarapari,-20.6667,-40.4975,79.9,89,1,12.06,BR,1701815910
203,auki,-8.7676,160.7034,80.58,89,100,11.1,SB,1701815911
204,leava,-14.3,-178.1667,83.86,71,90,14.07,WF,1701815911
205,colares,38.7992,-9.4469,52.32,91,100,15.99,PT,1701815911
206,sumbe,-11.2061,13.8437,79.5,84,96,3.89,AO,1701815911
207,dubrovytsya,51.5744,26.565,17.74,97,96,5.97,UA,1701815911
208,staraya russa,57.9944,31.3608,-5.33,100,69,2.75,RU,1701815911
209,amuntai,-2.4177,115.2494,75.33,97,86,0.65,ID,1701815911
210,beloyarskiy,63.7119,66.6722,-27.99,99,8,4.0,RU,1701815912
211,el jadid,33.2549,-8.506,65.86,78,94,28.95,MA,1701815912
212,luderitz,-26.6481,15.1594,62.37,73,18,17.9,NA,1701815912
213,opuwo,-18.0607,13.84,70.77,74,100,1.7,NA,1701815912
214,hindoria,23.9,79.5667,66.38,65,98,6.33,IN,1701815912
215,tughyl,47.7252,84.2063,31.33,74,100,21.85,KZ,1701815913
216,coahuayana de hidalgo,18.7,-103.6583,83.84,59,100,2.73,MX,1701815913
217,cidreira,-30.1811,-50.2056,69.85,88,100,20.07,BR,1701815913
218,miguel ahumada,30.6167,-106.5167,67.39,16,82,3.85,MX,1701815913
219,idri,27.5,13.2667,54.12,54,1,3.74,LY,1701815913
220,pisco,-13.7,-76.2167,71.65,78,0,20.71,PE,1701815656
221,phan rang-thap cham,11.5667,108.9833,73.96,87,31,5.44,VN,1701815913
222,pullman,46.7313,-117.1796,57.43,82,100,5.75,US,1701815914
223,fanipol,53.7627,27.2962,2.88,100,100,5.39,BY,1701815914
224,benguela,-12.5763,13.4055,80.04,80,81,1.21,AO,1701815914
225,kunming,25.0389,102.7183,48.13,71,40,15.66,CN,1701815862
226,la passe,45.5549,-0.8967,38.01,74,100,3.76,FR,1701815914
227,san fernando,15.0286,120.6898,78.53,86,90,3.47,PH,1701815778
228,lebu,-37.6167,-73.65,56.66,79,59,10.47,CL,1701815914
229,port saint john's,-31.6229,29.5448,66.34,84,99,8.23,ZA,1701815915
230,zayed city,24.3768,54.589,80.01,78,0,4.61,AE,1701815915
231,nazarovo,56.0064,90.3914,4.14,96,100,5.99,RU,1701815915
232,boca suno,-0.7167,-77.1333,85.59,85,95,2.48,EC,1701815915
233,chernyshevskiy,63.0128,112.4714,-48.82,100,74,1.88,RU,1701815817
234,sur,22.5667,59.5289,74.44,45,0,8.37,OM,1701815915
235,tazacorte,28.629,-17.9293,69.15,89,0,4.61,ES,1701815807
236,belle fourche,44.6714,-103.8522,55.33,43,97,3.56,US,1701815916
237,colonia,50.9333,6.95,40.59,91,100,10.36,DE,1701815642
238,karayazi,39.7028,42.1456,30.94,94,100,4.18,TR,1701815916
239,kodiak,57.79,-152.4072,29.71,64,75,27.63,US,1701815916
240,champerico,14.3,-91.9167,93.74,71,55,8.46,GT,1701815917
241,shitanjing,39.2342,106.3439,31.44,35,0,27.47,CN,1701815917
242,leiyang,26.4024,112.8591,56.41,79,98,3.65,CN,1701815917
243,capiovi,-26.93,-55.0608,74.39,96,42,3.74,AR,1701815917
244,ekibastuz,51.6667,75.3667,40.3,73,100,23.09,KZ,1701815917
245,bardai,11.65,7.2333,69.22,16,4,8.68,NG,1701815917
246,hadibu,12.65,54.0333,76.44,60,87,13.49,YE,1701815736
247,shevchenkove,49.6959,37.1735,25.56,76,99,5.64,UA,1701815917
248,mount pearl,47.5166,-52.7813,31.14,91,100,8.05,CA,1701815918
249,kourou,5.1552,-52.6478,82.45,89,78,7.78,GF,1701815918
250,dazhou,31.2159,107.5009,52.39,84,100,2.24,CN,1701815918
251,udachny,66.4167,112.4,-17.79,97,100,7.65,RU,1701815918
252,petoskey,45.3733,-84.9553,32.31,83,40,3.0,US,1701815918
253,cill airne,52.05,-9.5167,42.76,88,100,9.42,IE,1701815918
254,lorengau,-2.0226,147.2712,83.07,78,100,6.11,PG,1701815918
255,palikir - national government center,6.9248,158.1611,77.74,94,100,9.22,FM,1701815918
256,isangel,-19.55,169.2667,82.51,74,100,4.61,VU,1701815919
257,saint neots,52.2167,-0.2667,39.88,94,74,7.34,GB,1701815919
258,manoc-manoc,11.9416,121.9428,81.95,80,85,10.65,PH,1701815919
259,horki,54.2861,30.9842,18.28,96,99,2.82,BY,1701815919
260,merritt,50.1123,-120.7942,42.48,99,100,4.81,CA,1701815919
261,turpan,42.9333,89.1667,32.65,47,12,0.45,CN,1701815919
262,vilyuysk,63.7553,121.6247,-52.01,100,70,3.0,RU,1701815919
263,queenstown,-31.8976,26.8753,54.93,90,99,10.02,ZA,1701815919
264,laminusa,5.5549,120.9136,82.15,78,95,7.43,PH,1701815919
265,hobyo,5.3505,48.5268,79.16,69,82,18.1,SO,1701815920
266,tulun,54.5611,100.5792,-1.48,97,100,5.93,RU,1701815920
267,banjar,-8.19,114.9675,79.18,85,83,5.08,ID,1701815920
268,hamilton,39.1834,-84.5333,44.78,91,100,8.05,US,1701815661
269,san julian,21.0167,-102.1667,59.77,62,100,2.82,MX,1701815920
270,chibougamau,49.9168,-74.3659,-0.78,85,0,0.0,CA,1701815920
271,balykchy,42.4557,76.1861,34.02,42,42,0.38,KG,1701815920
272,longyearbyen,78.2186,15.6401,22.84,74,40,23.02,SJ,1701815920
273,vila franca do campo,37.7167,-25.4333,66.61,99,100,19.48,PT,1701815778
274,nueve de julio,-35.4444,-60.8831,62.96,84,97,1.99,AR,1701815755
275,minas de marcona,-15.2119,-75.1103,62.37,71,63,13.65,PE,1701815921
276,kampong speu,11.5,104.3333,74.48,85,94,1.48,KH,1701815921
277,callao,-12.0667,-77.15,75.72,73,75,11.5,PE,1701815657
278,dedza,-14.3779,34.3332,63.97,67,27,1.66,MW,1701815921
279,concordia,-31.393,-58.0209,75.78,86,100,3.0,AR,1701815921
280,shingu,33.7333,135.9833,51.01,88,25,4.18,JP,1701815921
281,portachuelo,-17.35,-63.4,83.3,79,76,8.48,BO,1701815921
282,lunglei,22.8833,92.7333,61.34,85,100,2.17,IN,1701815921
283,pundong,-7.9522,110.3486,78.53,87,100,3.13,ID,1701815921
284,petrovsk,52.3064,45.3917,12.58,97,88,6.58,RU,1701815922
285,uray,60.1247,64.7758,-8.43,95,100,11.12,RU,1701815922
286,ketchikan,55.3422,-131.6461,48.18,81,100,12.66,US,1701815737
287,fort mcmurray,56.7268,-111.381,35.19,75,75,8.05,CA,1701815842
288,noshiro,40.2039,140.0242,43.92,86,100,4.76,JP,1701815922
289,uchiza,-8.4592,-76.4633,74.46,96,95,1.63,PE,1701815922
290,ulladulla,-35.35,150.4667,79.77,60,8,9.35,AU,1701815733
291,saldanha,-33.0117,17.9442,64.45,79,0,15.3,ZA,1701815922
292,high river,50.5834,-113.8687,56.75,53,100,3.42,CA,1701815923
293,pauini,-7.7136,-66.9764,80.56,72,83,1.95,BR,1701815923
294,nyurba,63.2842,118.3319,-54.56,99,72,5.06,RU,1701815815
295,karratha,-20.7377,116.8463,84.94,51,1,8.16,AU,1701815923
296,panacan,9.2463,118.4082,80.28,85,58,6.2,PH,1701815923
297,weno,7.4515,151.8468,84.15,79,100,5.75,FM,1701815801
298,andergrove,-21.0833,149.1833,85.64,66,76,14.85,AU,1701815923
299,ahmetli,38.5196,27.9387,53.92,81,54,0.49,TR,1701815923
300,harnosand,62.6323,17.9379,3.2,94,80,4.45,SE,1701815923
301,oriximina,-1.7656,-55.8661,79.66,72,86,1.48,BR,1701815923
302,zadar,44.1197,15.2422,47.01,100,75,5.75,HR,1701815923
303,esfarayen,37.0765,57.5101,38.86,42,2,2.55,IR,1701815924
304,arraial do cabo,-22.9661,-42.0278,78.66,83,75,10.36,BR,1701815706
305,yuzhno-kurilsk,44.0306,145.8556,39.38,91,33,6.78,RU,1701815924
306,siwa oasis,29.2041,25.5195,59.79,61,32,7.92,EG,1701815924
307,makassar,-5.14,119.4221,77.05,94,20,1.14,ID,1701815924
308,hexham,54.9699,-2.104,33.94,85,10,2.75,GB,1701815924
309,bonny,4.4522,7.1681,81.52,78,26,10.85,NG,1701815763
310,aykhal,66.0,111.5,-20.29,98,100,7.54,RU,1701815752
311,zyrya,40.3661,50.2917,48.29,74,100,13.87,AZ,1701815924
312,cadale,2.7603,46.3222,80.26,75,98,14.36,SO,1701815925
313,galesong,-5.3166,119.3661,77.02,78,92,4.29,ID,1701815925
314,crane,31.3974,-102.3501,65.16,28,4,3.69,US,1701815925
315,bukama,-9.2,25.85,68.22,98,90,1.88,CD,1701815925
316,howard springs,-12.497,131.047,80.87,93,98,8.21,AU,1701815925
317,island harbour,50.724,-1.2758,40.15,91,63,1.01,GB,1701815925
318,hurricane,37.1753,-113.2899,67.5,32,0,5.01,US,1701815925
319,san pedro,14.35,121.0167,80.31,87,40,5.01,PH,1701815925
320,dongola,19.1667,30.4833,69.84,18,45,10.09,SD,1701815925
321,jabor,5.921,169.6434,82.35,79,74,22.46,MH,1701815925
322,micheweni,-4.9667,39.8333,80.51,81,68,5.86,TZ,1701815926
323,timimoun,29.2639,0.231,59.38,36,0,3.44,DZ,1701815926
324,tofol,5.3248,163.0078,82.18,83,100,5.75,FM,1701815926
325,bom jesus,-9.0744,-44.3586,79.93,55,84,0.87,BR,1701815926
326,giporlos,11.12,125.4494,78.96,89,100,5.3,PH,1701815926
327,my tho,10.35,106.35,74.46,94,100,3.62,VN,1701815926
328,runaway bay,18.4596,-77.3357,80.13,80,7,12.75,JM,1701815926
329,pangai,-19.8,-174.35,84.31,74,40,10.36,TO,1701815926
330,teocelo,19.3833,-96.9667,63.91,93,100,1.23,MX,1701815926
331,vredendal,-31.6683,18.5012,63.91,68,27,4.38,ZA,1701815926
332,salalah,17.0151,54.0924,75.29,53,0,2.3,OM,1701815927
333,nouadhibou,20.931,-17.0347,67.98,83,56,13.8,MR,1701815927
334,sodra sandby,56.5667,16.6167,33.66,70,99,14.34,SE,1701815927
335,princeville,45.7668,-61.2985,30.63,88,100,10.36,CA,1701815757
336,kharovsk,59.9642,40.1912,-3.37,100,86,2.04,RU,1701815927
337,indramayu,-6.3264,108.32,81.59,78,96,3.09,ID,1701815927
338,orsha,54.5153,30.4053,9.14,98,97,3.78,BY,1701815927
339,vilyuchinsk,52.9306,158.4028,25.07,83,73,9.4,RU,1701815729
340,coron,11.9986,120.2043,79.74,85,79,1.83,PH,1701815927
341,okhotsk,59.3833,143.3,-11.24,76,100,13.06,RU,1701815927
342,koundara,12.4833,-13.3,77.11,21,0,3.78,GN,1701815928
343,ciudad bolivar,8.1222,-63.5497,88.39,43,98,15.55,VE,1701815928
344,east london,-33.0153,27.9116,65.01,75,100,10.07,ZA,1701815759
345,papao,-17.75,-149.55,78.48,81,100,18.48,PF,1701815928
346,nabire,-3.3667,135.4833,81.14,73,74,2.75,ID,1701815671
347,westport,41.1415,-73.3579,42.33,64,40,6.91,US,1701815928
348,faaa,-17.55,-149.6,78.76,83,75,23.0,PF,1701815928
349,rikaze,29.25,88.8833,22.69,66,1,3.53,CN,1701815928
350,kyaukse,21.6,96.1333,71.13,78,99,2.73,MM,1701815928
351,sao joao da barra,-21.6403,-41.0511,78.89,92,5,9.64,BR,1701815929
352,tchintabaraden,15.8969,5.7985,73.02,16,0,11.32,NE,1701815929
353,alofi,-19.0595,-169.9187,82.29,69,75,12.66,NU,1701815929
354,xai-xai,-25.0519,33.6442,73.31,82,42,6.98,MZ,1701815929
355,constitucion,-35.3333,-72.4167,57.56,82,22,6.4,CL,1701815756
356,tromso,69.6496,18.957,24.82,63,0,14.97,NO,1701815929
357,borogontsy,62.6683,131.1683,-56.36,100,67,3.27,RU,1701815929
358,glendive,47.1053,-104.7125,53.22,46,0,11.5,US,1701815929
359,puerto baquerizo moreno,-0.9,-89.6,79.79,74,20,18.41,EC,1701815929
360,zemio,5.0314,25.1361,71.1,86,30,3.38,CF,1701815929
361,freetown,8.484,-13.2299,79.66,83,0,6.44,SL,1701815930
362,boyolangu,-8.1181,111.8935,77.23,87,98,4.0,ID,1701815930
363,loukhi,66.0764,33.0381,11.93,97,100,2.24,RU,1701815930
364,caleta de carquin,-11.0925,-77.6267,69.12,81,59,10.96,PE,1701815930
365,al hufuf,25.3646,49.5653,59.34,41,0,6.91,SA,1701815930
366,sisimiut,66.9395,-53.6735,13.05,77,18,11.48,GL,1701815813
367,vahdat,38.5563,69.0135,41.74,65,0,0.0,TJ,1701815930
368,ceeldheer,3.8488,47.1806,78.3,74,96,14.14,SO,1701815930
369,egilsstadir,65.2653,-14.3948,1.31,85,100,5.75,IS,1701815930
370,rosso,16.4986,-15.8153,72.79,50,41,9.93,SN,1701815930
371,berriane,32.8265,3.7669,58.01,32,100,5.1,DZ,1701815931
372,kiunga,-6.1219,141.2906,73.47,99,100,1.72,PG,1701815931
373,smithers,54.7804,-127.1743,41.32,75,40,10.36,CA,1701815709
374,puerto armuelles,8.2833,-82.8667,85.98,68,16,3.0,PA,1701815821
375,murzuq,25.9155,13.9184,57.72,43,11,6.53,LY,1701815931
376,labrador city,52.9463,-66.9114,3.11,78,100,11.5,CA,1701815931
377,khash,28.2211,61.2158,49.15,23,73,3.29,IR,1701815931
378,palmer,42.1584,-72.3287,37.24,65,100,6.91,US,1701815931
379,saipan,15.1355,145.701,79.5,94,100,9.22,MP,1701815931
380,maceio,-9.6658,-35.7353,80.04,89,75,5.75,BR,1701815767
381,tsiombe,-25.3,45.4833,70.47,96,4,4.79,MG,1701815932
382,tozkhurmato,34.8905,44.6299,63.5,33,4,5.17,IQ,1701815932
383,okha,53.5739,142.9478,22.41,91,100,12.73,RU,1701815932
384,durazno,-33.4131,-56.5006,71.55,73,100,13.65,UY,1701815932
385,uturoa,-16.7333,-151.4333,77.67,81,100,11.99,PF,1701815932
386,tolanaro,-25.0319,46.9987,75.27,83,20,16.11,MG,1701815661
387,dzhangala,49.2167,50.3333,24.28,80,10,6.62,KZ,1701815932
388,zwedru,6.0667,-8.1281,75.0,91,53,3.02,LR,1701815932
389,valley center,33.2184,-117.0342,81.7,36,0,5.01,US,1701815667
390,bonthe,7.5264,-12.505,79.36,86,0,6.6,SL,1701815932
391,alice springs,-23.7,133.8833,81.95,30,0,0.0,AU,1701815933
392,prado,-17.3411,-39.2208,77.16,85,0,8.75,BR,1701815933
393,al jawf,29.5,38.75,67.71,34,45,14.74,SA,1701815933
394,zhangjiakou shi xuanhua qu,40.6103,115.0447,27.28,28,0,12.53,CN,1701815933
395,hlukhiv,51.6782,33.9162,10.69,97,100,4.65,UA,1701815933
396,port isabel,26.0734,-97.2086,73.44,80,0,8.05,US,1701815641
397,lihue,21.9789,-159.3672,81.64,75,40,19.57,US,1701815724
398,ilanskiy,56.2358,96.065,-4.65,96,100,9.98,RU,1701815933
399,tenenkou,14.4572,-4.9169,77.77,14,0,8.01,ML,1701815933
400,kijang,35.2442,129.2139,29.93,47,19,7.58,KR,1701815933
401,starobil's'k,49.2783,38.9107,27.77,73,98,5.08,UA,1701815933
402,itaituba,-4.2761,-55.9836,77.56,77,73,2.13,BR,1701815686
403,maine soroa,13.2114,12.0241,72.12,17,61,9.71,NE,1701815934
404,roudnice nad labem,50.4253,14.2618,31.12,96,100,3.58,CZ,1701815934
405,san antonio de pale,-1.4014,5.6325,79.0,82,100,8.28,GQ,1701815934
406,hammerfest,70.6634,23.6821,16.25,73,50,17.27,NO,1701815934
407,la palma,33.8464,-118.0467,86.88,38,20,6.91,US,1701815897
408,mananjary,-21.2167,48.3333,72.79,85,74,4.43,MG,1701815934
409,orchard homes,46.8633,-114.0484,51.6,80,100,3.44,US,1701815934
410,khandyga,62.6667,135.6,-62.81,100,55,0.89,RU,1701815934
411,geraldton,-28.7667,114.6,64.81,88,100,8.05,AU,1701815934
412,ashland,40.8167,-82.2665,36.88,97,100,1.86,US,1701815934
413,road town,18.4167,-64.6167,80.69,74,40,5.75,VG,1701815734
414,zheleznogorsk-ilimskiy,56.5768,104.1217,-23.64,100,93,1.99,RU,1701815935
415,'ain el melh,34.8415,4.1638,51.01,69,100,4.72,DZ,1701815935
416,toliara,-23.35,43.6667,72.55,83,32,4.12,MG,1701815935
417,bani walid,31.7566,13.9942,56.52,45,98,6.26,LY,1701815935
418,beipiao,41.7919,120.7792,27.81,41,58,15.28,CN,1701815935
419,mombetsu,44.3525,143.3525,34.25,80,4,4.61,JP,1701815935
420,porto novo,6.4965,2.6036,84.02,80,37,7.07,BJ,1701815935
421,kruisfontein,-34.0033,24.7314,60.89,76,100,10.67,ZA,1701815935
422,hlusk,52.903,28.6845,10.24,98,86,5.64,BY,1701815935
423,wenzhou,27.9994,120.6668,52.29,85,1,4.03,CN,1701815935
424,nemuro,43.3236,145.575,44.4,88,54,3.44,JP,1701815936
425,guerrero negro,27.9769,-114.0611,76.93,25,100,5.93,MX,1701815936
426,savannakhet,16.566,104.751,69.96,89,55,3.49,LA,1701815936
427,pathein,16.7833,94.7333,74.43,84,44,5.57,MM,1701815936
428,guli,28.8833,120.0333,46.4,90,16,1.86,CN,1701815936
429,valparaiso,-33.0393,-71.6273,66.43,59,0,12.66,CL,1701815738
430,mil'kovo,55.6078,37.7956,12.6,100,80,3.22,RU,1701815936
431,daru,-9.0763,143.2092,85.77,61,49,8.46,PG,1701815745
432,al qusiyah,27.4402,30.8184,62.08,47,0,7.47,EG,1701815936
433,yeraliyev,43.2,51.65,38.19,67,100,10.27,KZ,1701815937
434,tabou,4.423,-7.3528,79.5,81,2,6.91,CI,1701815937
435,kencong,-8.2833,113.3667,77.85,85,100,1.68,ID,1701815937
436,tocopilla,-22.092,-70.1979,67.84,70,20,10.11,CL,1701815937
437,ilhabela,-23.7781,-45.3581,76.08,88,89,4.29,BR,1701815937
438,fort campbell north,36.6543,-87.4606,51.85,53,100,12.66,US,1701815937
439,le vauclin,14.5452,-60.8388,80.65,74,20,5.75,MQ,1701815937
440,polyarnyy,69.1989,33.4478,14.43,85,100,15.66,RU,1701815937
441,nizhnevartovsk,60.9344,76.5531,-29.18,75,0,11.18,RU,1701815937
442,nantucket,41.2835,-70.0995,39.34,86,100,9.22,US,1701815938
443,mili,6.0815,171.735,82.56,78,90,22.32,MH,1701815938
444,sandur,15.1,76.55,70.12,89,100,3.62,IN,1701815938
445,natal,-5.795,-35.2094,81.25,78,20,12.66,BR,1701815938
446,naze,28.3667,129.4833,58.12,60,0,3.22,JP,1701815938
447,kosh-agach,50.0,88.6667,13.3,93,94,1.01,RU,1701815938
448,zhezqazghan,47.7833,67.7667,38.68,79,61,15.77,KZ,1701815938
449,radom,51.4025,21.1471,20.26,96,100,5.75,PL,1701815938
450,dwarka,22.2394,68.9678,73.69,49,0,17.69,IN,1701815938
451,gargalianoi,37.0667,21.6333,53.35,92,100,10.45,GR,1701815939
452,aneho,6.2333,1.6,82.6,77,37,11.01,TG,1701815939
453,chabahar,25.2919,60.643,74.01,45,0,9.71,IR,1701815939
454,hafar al-batin,28.4328,45.9708,57.78,38,0,0.0,SA,1701815939
455,usinsk,65.9939,57.5281,-23.93,96,6,5.99,RU,1701815939
456,broken hill,-31.95,141.4333,84.88,21,6,12.73,AU,1701815939
457,st. john's,47.5649,-52.7093,31.96,90,100,8.05,CA,1701815873
458,holualoa,19.6228,-155.9522,78.64,79,40,13.8,US,1701815939
459,bozeman,45.6796,-111.0386,57.69,38,0,11.5,US,1701815707
460,rio pardo de minas,-15.6097,-42.5397,76.8,51,61,4.81,BR,1701815939
461,chitungwiza,-18.0127,31.0756,72.45,37,23,8.32,ZW,1701815940
462,scarborough,54.2797,-0.4044,42.66,78,99,1.01,GB,1701815657
463,aflou,34.1128,2.1023,48.43,35,100,6.31,DZ,1701815940
464,vikhorevka,56.1201,101.1636,-16.76,91,100,3.56,RU,1701815940
465,alupka,44.4167,34.05,42.46,79,100,13.06,UA,1701815940
466,fort bragg,35.139,-79.006,58.55,49,0,5.75,US,1701815940
467,eforie sud,44.0229,28.6494,38.21,90,100,7.49,RO,1701815940
468,rongelap,11.1635,166.8941,81.9,80,50,21.99,MH,1701815940
469,taro,-8.3862,115.28,71.6,88,83,0.43,ID,1701815940
470,angaur state,6.906,134.13,83.37,74,72,5.44,PW,1701815940
471,vadso,70.0744,29.7487,21.36,63,20,18.41,NO,1701815941
472,zakynthos,37.7914,20.8953,55.63,87,100,21.68,GR,1701815941
473,ghat,24.9647,10.1728,63.27,24,2,4.05,LY,1701815941
474,riachao,-7.3619,-46.6172,75.88,81,67,4.05,BR,1701815941
475,kinablangan,7.6947,126.5503,76.82,95,100,7.36,PH,1701815941
476,abha,18.2164,42.5053,53.85,24,0,6.91,SA,1701815941
477,rabaul,-4.1967,152.1721,82.0,75,99,3.0,PG,1701815941
478,marsabit,2.3284,37.9899,68.65,57,23,9.15,KE,1701815910
479,sittwe,20.15,92.9,75.49,78,83,5.41,MM,1701815942
480,fort irwin,35.2627,-116.6848,69.33,23,0,0.0,US,1701815798
481,pekin,39.9075,116.3972,33.69,17,1,12.46,CN,1701815802
482,emerald,-23.5333,148.1667,80.35,64,0,10.45,AU,1701815942
483,mundi,22.0667,76.5,68.52,68,90,9.44,IN,1701815943
484,puerto aysen,-45.4,-72.7,60.37,88,83,3.31,CL,1701815943
485,camacupa,-12.0167,17.4833,62.33,92,87,3.87,AO,1701815943
486,yazman,29.1212,71.7446,62.94,37,0,5.79,PK,1701815943
487,macae,-22.3708,-41.7869,78.55,83,100,3.44,BR,1701815943
488,mafra,-26.1114,-49.8053,65.12,95,99,4.59,BR,1701815944
489,nyrob,60.733,56.7202,-5.42,85,99,5.44,RU,1701815944
490,tonj,7.2737,28.6822,81.25,51,85,4.63,SS,1701815944
491,newman,37.3138,-121.0208,68.23,44,35,1.99,US,1701815944
492,syzran',53.1585,48.4681,-1.34,99,48,5.06,RU,1701815944
493,touros,-5.1989,-35.4608,80.47,73,6,16.46,BR,1701815944
494,envira,-7.3,-70.2167,74.3,96,100,0.38,BR,1701815945
495,kalmunai,7.4167,81.8167,77.72,89,91,6.67,LK,1701815945
496,harper,4.375,-7.7169,79.61,81,12,7.4,LR,1701815945
497,igarka,67.4667,86.5833,-38.04,96,14,4.43,RU,1701815945
498,homer,59.6425,-151.5483,37.29,70,75,5.75,US,1701815657
499,male,4.1748,73.5089,84.15,79,75,9.22,MV,1701815946
500,zhangye,38.9342,100.4517,32.47,25,0,6.64,CN,1701815946
501,lerwick,60.1545,-1.1494,30.2,67,16,2.01,GB,1701815946
502,vernon,50.2581,-119.2691,46.76,90,100,2.3,CA,1701815946
503,kampene,-3.6,26.6667,63.99,98,78,0.81,CD,1701815946
504,keelung,25.1283,121.7419,66.94,90,100,8.08,TW,1701815947
505,colonia aurora,-27.4743,-54.525,73.63,96,29,3.91,AR,1701815947
506,ilebo,-4.3167,20.5833,68.23,98,86,1.05,CD,1701815947
507,ludington,43.9553,-86.4526,37.58,76,100,0.0,US,1701815948
508,kattivakkam,13.2167,80.3167,80.69,84,97,7.87,IN,1701815948
509,port macquarie,-31.4333,152.9167,83.77,51,3,5.77,AU,1701815813
510,ambovombe,-25.1667,46.0833,70.45,89,3,1.34,MG,1701815948
511,komsomolets,53.7453,62.0708,13.33,81,99,10.25,KZ,1701815948
512,jayapura,-2.5333,140.7,79.99,81,96,2.75,ID,1701815763
513,mulanje,-16.0316,35.5,72.73,70,8,2.8,MW,1701815949
514,saudarkrokur,65.7461,-19.6394,24.48,71,16,6.69,IS,1701815949
515,fort wellington,6.4,-57.6,78.08,87,10,7.49,GY,1701815797
516,hastings,50.8552,0.5729,39.79,51,43,11.32,GB,1701815949
517,salt,32.0392,35.7272,56.48,91,85,3.56,JO,1701815949
518,dawesville,30.9224,-84.0091,59.41,60,0,3.44,US,1701815949
519,nadym,65.5333,72.5167,-39.55,100,48,5.37,RU,1701815950
520,lillehammer,61.1146,10.4674,1.4,93,78,3.67,NO,1701815817
521,tamandare,-8.7597,-35.1047,78.04,77,5,7.72,BR,1701815950
522,fortaleza,-3.7227,-38.5247,84.07,80,40,9.22,BR,1701815851
523,puerto asis,0.5133,-76.5007,80.42,67,39,1.9,CO,1701815950
524,verkhnevilyuysk,63.4453,120.3167,-51.05,99,66,4.16,RU,1701815950
525,velikiye luki,56.34,30.5452,8.33,99,100,2.06,RU,1701815951
526,aizenay,46.74,-1.6083,40.55,87,0,3.44,FR,1701815951
527,bichura,50.5881,107.6022,-2.58,96,97,2.26,RU,1701815951
528,bechar,31.6167,-2.2167,57.52,33,75,0.0,DZ,1701815951
529,constantia,44.1833,28.65,38.08,90,100,6.44,RO,1701815951
530,qarqaraly,49.4058,75.4742,35.04,78,100,21.43,KZ,1701815951
531,pirojpur,22.5667,89.9833,66.88,77,100,6.44,BD,1701815952
532,quellon,-43.1167,-73.6167,55.09,69,3,12.75,CL,1701815952
533,takoradi,4.8845,-1.7554,80.62,80,12,6.42,GH,1701815952
534,new norfolk,-42.7826,147.0587,63.91,42,6,8.16,AU,1701815952
535,chinsali,-10.5414,32.0816,64.51,86,64,1.97,ZM,1701815952
536,nahiyat ash shinafiyah,31.5874,44.6602,65.55,31,4,6.96,IQ,1701815953
537,north haven,41.3909,-72.8595,39.07,70,40,10.36,US,1701815953
538,dunedin,-45.8742,170.5036,59.61,77,86,12.93,NZ,1701815953
539,acapulco de juarez,16.8634,-99.8901,87.62,66,75,5.75,MX,1701815885
540,abalak,58.1286,68.5944,1.33,96,100,8.03,RU,1701815954
541,karaton,-6.3424,106.1045,75.58,92,100,0.4,ID,1701815954
542,hotan,37.0997,79.9269,36.18,34,0,5.5,CN,1701815954
543,saltpond,5.2091,-1.0606,80.78,82,21,7.85,GH,1701815954
544,yung shue wan,22.2333,114.1167,71.67,81,92,9.24,HK,1701815954
545,thunder bay,48.4001,-89.3168,31.98,86,100,8.05,CA,1701815873
546,marshall,34.3834,-86.3333,57.51,43,0,10.36,US,1701815955
547,kargasok,59.0556,80.8572,-6.03,93,95,11.01,RU,1701815955
548,suhum,6.0409,-0.45,75.02,92,12,3.0,GH,1701815955
549,waajid,3.8096,43.2463,77.29,45,41,8.79,SO,1701815955
550,taltal,-25.4,-70.4833,66.38,72,21,6.08,CL,1701815955
551,nikolayevsk-on-amure,53.1406,140.73,13.62,88,99,3.49,RU,1701815727
552,ondarroa,43.3167,-2.4167,49.53,81,100,3.53,ES,1701815956
553,revda,56.801,59.9303,0.07,96,100,5.37,RU,1701815956
554,taoudenni,22.6783,-3.9836,70.23,11,99,8.5,ML,1701815956
555,conning towers-nautilus park,41.3855,-72.0688,39.65,69,100,3.44,US,1701815956
556,jimo,36.3897,120.4622,42.58,65,97,17.9,CN,1701815957
557,murray bridge,-35.1167,139.2667,67.1,56,88,0.81,AU,1701815957
558,phek,25.6667,94.5,42.17,96,87,1.45,IN,1701815957
559,ponta delgada,37.7333,-25.6667,66.92,88,40,18.41,PT,1701815957
560,kupang,-10.1667,123.5833,79.38,100,20,1.14,ID,1701815749
561,gotsucho,35.0,132.2167,50.77,78,0,6.91,JP,1701815958
562,berezovyy,51.6667,135.7,9.01,88,69,3.33,RU,1701815958
563,kiuruvesi,63.65,26.6167,9.09,99,95,2.44,FI,1701815958
564,sola,-13.8833,167.55,80.31,80,100,9.78,VU,1701815958
565,keita,14.7551,5.7749,72.57,16,0,7.05,NE,1701815958
566,pacific grove,36.6177,-121.9166,75.15,66,0,4.61,US,1701815959
567,yanchep,-31.55,115.6833,70.95,53,17,9.89,AU,1701815959
568,vicuna,-30.0319,-70.7081,76.77,34,0,5.75,CL,1701815959
569,turan,16.0678,108.2208,75.18,94,40,1.14,VN,1701815959
570,saint-philippe,-21.3585,55.7679,70.11,79,12,5.06,RE,1701815959
571,jining,35.405,116.5814,42.8,35,47,9.26,CN,1701815697
572,villars-sur-glane,46.7905,7.1172,39.34,77,100,8.01,CH,1701815960
573,yangambi,0.8102,24.4336,68.72,98,34,2.35,CD,1701815960
574,adrar,20.5022,-10.0711,69.3,30,93,8.23,MR,1701815960
575,tobelo,1.7284,128.0095,81.95,77,50,2.35,ID,1701815961
576,slave lake,55.2834,-114.769,31.98,74,0,5.75,CA,1701815900
577,heihe,50.2441,127.4902,18.18,88,11,7.09,CN,1701815961
578,sanibel,26.449,-82.0223,74.05,77,100,5.99,US,1701815961
