City_ID,City,Lat,Lng,Max Temp,Humidity,Cloudiness,Wind Speed,Country,Date
0,nova vicosa,-17.8919,-39.3719,26.98888888888889,80,15,7.49,BR,1707771414
1,saiki,32.95,131.9,7.277777777777779,81,1,7.0,JP,1707771414
2,ust-nera,64.5667,143.2,-39.97222222222223,98,83,1.34,RU,1707771414
3,grytviken,-54.2811,-36.5092,4.527777777777777,95,100,6.64,GS,1707771414
4,avarua,-21.2078,-159.775,29.02777777777778,65,75,11.5,CK,1707771414
5,riosucio,5.4216,-75.7032,26.672222222222228,66,64,2.48,CO,1707771414
6,sao felix do xingu,-6.6447,-51.995,27.05,82,31,4.54,BR,1707771257
7,calama,-22.4667,-68.9333,23.272222222222222,23,0,18.41,CL,1707771366
8,panacan,9.2463,118.4082,23.127777777777776,91,100,6.26,PH,1707771415
9,yarmouth,41.7057,-70.2286,7.01111111111111,71,0,5.75,US,1707771415
10,olonkinbyen,70.9221,-8.7187,-1.5111111111111106,88,100,14.76,SJ,1707771415
11,laguna,38.421,-121.4238,17.227777777777778,60,0,4.61,US,1707771415
12,quincy,42.2529,-71.0023,9.488888888888889,53,75,5.75,US,1707771415
13,fortuna,40.5982,-124.1573,13.85,87,0,4.61,US,1707771415
14,adamstown,-25.066,-130.1015,24.93888888888889,90,100,16.8,PN,1707771415
15,mutuali,-14.8706,37.0044,21.13888888888889,95,100,2.33,MZ,1707771415
16,papatowai,-46.5619,169.4708,15.277777777777779,61,100,5.1,NZ,1707771415
17,daru,-9.0763,143.2092,25.27777777777778,89,91,5.64,PG,1707771415
18,albany,42.6001,-73.9662,4.227777777777778,65,100,1.99,US,1707771254
19,jamestown,42.097,-79.2353,5.2888888888888905,66,100,1.99,US,1707771275
20,college,64.8569,-147.8028,-10.861111111111112,80,75,3.44,US,1707771416
21,gamay,12.3854,125.2979,24.372222222222227,91,77,12.53,PH,1707771416
22,ancud,-41.8697,-73.8203,17.01111111111111,50,27,5.41,CL,1707771416
23,puerto ayora,-0.7393,-90.3518,28.077777777777783,91,42,5.01,EC,1707771416
24,stanley,54.868,-1.6985,5.98888888888889,83,20,13.8,GB,1707771416
25,kodinsk,58.6881,99.1844,-13.63888888888889,93,100,9.42,RU,1707771416
26,ubari,26.5921,12.7805,17.372222222222224,31,0,7.96,LY,1707771416
27,talnakh,69.4865,88.3972,-35.988888888888894,90,15,3.85,RU,1707771416
28,suntar,62.1444,117.6319,-25.772222222222222,96,100,5.44,RU,1707771416
29,merizo village,13.2658,144.6691,25.85,84,100,24.18,GU,1707771417
30,ushuaia,-54.8,-68.3,12.788888888888891,54,20,13.8,AR,1707771192
31,dzilam gonzalez,21.2833,-88.9333,27.82777777777778,66,39,10.4,MX,1707771417
32,vila franca do campo,37.7167,-25.4333,18.272222222222222,99,42,20.47,PT,1707771417
33,kapuskasing,49.4169,-82.4331,-4.0,63,75,5.75,CA,1707771417
34,constantia,44.1833,28.65,7.377777777777779,80,98,12.75,RO,1707771417
35,longboat key,27.4125,-82.659,26.811111111111114,72,100,24.16,US,1707771417
36,happy valley-goose bay,53.3168,-60.3315,-2.827777777777778,80,100,10.36,CA,1707771417
37,atafu village,-8.5421,-172.5159,28.672222222222224,80,100,17.58,TK,1707771417
38,invercargill,-46.4,168.35,16.122222222222224,73,100,7.0,NZ,1707771417
39,walvis bay,-22.9575,14.5053,19.527777777777782,82,5,2.3,NA,1707771417
40,swakopmund,-22.6833,14.5333,19.47222222222222,87,24,7.0,NA,1707771418
41,muroto-misakicho,33.2833,134.15,11.372222222222222,60,1,5.44,JP,1707771418
42,waitangi,-43.9535,-176.5597,15.46111111111111,90,86,5.99,NZ,1707771418
43,hermanus,-34.4187,19.2345,20.450000000000003,95,57,2.89,ZA,1707771418
44,hamilton,39.1834,-84.5333,10.450000000000001,51,0,11.5,US,1707771418
45,longyearbyen,78.2186,15.6401,-15.08888888888889,85,0,10.36,SJ,1707771418
46,port-aux-francais,-49.35,70.2167,7.172222222222221,91,50,31.03,TF,1707771418
47,ilhabela,-23.7781,-45.3581,27.849999999999998,80,73,6.49,BR,1707771418
48,am timan,11.0297,20.2827,29.011111111111113,15,78,5.77,TD,1707771418
49,east london,-33.0153,27.9116,22.950000000000003,83,0,19.62,ZA,1707771419
50,bethel,41.3712,-73.414,6.527777777777778,63,20,6.91,US,1707771274
51,hawaiian paradise park,19.5933,-154.9731,26.688888888888894,71,0,5.75,US,1707771419
52,hastings,50.8552,0.5729,8.072222222222223,43,72,7.25,GB,1707771419
53,vadso,70.0744,29.7487,-6.911111111111112,86,75,14.97,NO,1707771419
54,wailua homesteads,22.0669,-159.378,25.438888888888894,56,0,4.0,US,1707771419
55,west island,-12.1568,96.8225,27.988888888888887,83,100,5.75,CC,1707771419
56,port mathurin,-19.6833,63.4167,27.28888888888889,85,47,20.47,MU,1707771419
57,el calafate,-50.3408,-72.2768,12.722222222222221,51,100,4.9,AR,1707771419
58,ribeira grande,38.5167,-28.7,17.650000000000002,82,75,27.0,PT,1707771419
59,hami,42.8,93.45,-0.09999999999999985,42,100,6.4,CN,1707771420
60,castrocaro terme e terra del sole,44.1824,11.9556,9.227777777777778,89,100,2.59,IT,1707771420
61,mangalia,43.8,28.5833,9.727777777777778,81,98,12.48,RO,1707771420
62,kill devil hills,36.0307,-75.676,9.011111111111111,99,100,9.22,US,1707771254
63,trinidad,-14.8333,-64.9,26.98888888888889,89,75,12.66,BO,1707771128
64,sumter,28.7086,-82.0831,28.938888888888894,53,98,13.0,US,1707771420
65,nar'yan-mar,67.6713,53.087,-32.72222222222222,100,64,5.01,RU,1707771420
66,yellowknife,62.456,-114.3525,-8.711111111111112,92,75,9.22,CA,1707771420
67,margaret river,-33.95,115.0667,13.900000000000002,80,0,12.57,AU,1707771420
68,saipan,15.1355,145.701,25.388888888888893,73,0,18.41,MP,1707771420
69,iskateley,67.6803,53.1512,-32.77222222222222,100,49,5.01,RU,1707771420
70,el granada,37.5027,-122.4694,17.750000000000004,70,0,8.05,US,1707771185
71,kerikeri,-35.2268,173.9474,21.06111111111111,83,97,1.9,NZ,1707771421
72,la ronge,55.1001,-105.2842,-1.861111111111112,64,75,3.44,CA,1707771421
73,blackmans bay,-43.0167,147.3167,14.28888888888889,90,78,1.99,AU,1707771421
74,klyuchi,52.2667,79.1667,-14.57777777777778,90,53,7.43,RU,1707771421
75,yakeshi,49.2833,120.7333,-10.861111111111112,96,99,4.74,CN,1707771421
76,port lincoln,-34.7333,135.8667,16.177777777777777,78,0,5.88,AU,1707771421
77,sisimiut,66.9395,-53.6735,-23.600000000000005,85,27,6.08,GL,1707771421
78,coquimbo,-29.9533,-71.3436,20.85,73,20,12.66,CL,1707771140
79,edinburgh of the seven seas,-37.0676,-12.3116,17.66111111111111,68,100,14.88,SH,1707771421
80,petropavlovsk-kamchatsky,53.0452,158.6483,-18.07777777777778,81,0,11.18,RU,1707771421
81,klaksvik,62.2266,-6.589,4.51111111111111,80,100,5.1,FO,1707771421
82,keflavik,64.0049,-22.5624,1.949999999999999,86,0,19.57,IS,1707771421
83,bilibino,68.0546,166.4372,-31.211111111111112,98,98,4.21,RU,1707771422
84,punta arenas,-53.15,-70.9167,13.06111111111111,54,100,18.41,CL,1707771422
85,saudarkrokur,65.7461,-19.6394,0.23888888888888873,97,100,18.63,IS,1707771422
86,vorgashor,67.5833,63.95,-37.1,100,27,3.85,RU,1707771422
87,thompson,55.7435,-97.8558,-7.9111111111111105,79,75,5.75,CA,1707771422
88,tiksi,71.6872,128.8694,-32.800000000000004,100,100,2.19,RU,1707771422
89,san patricio,28.017,-97.5169,18.972222222222225,36,0,15.97,US,1707771422
90,ta`u,-14.2336,-169.5144,27.950000000000003,84,98,15.21,AS,1707771422
91,vahdat,38.5563,69.0135,5.411111111111112,61,49,4.47,TJ,1707771422
92,mitu,1.1983,-70.1733,27.522222222222226,74,100,1.39,CO,1707771423
93,saint-georges,12.0564,-61.7485,29.822222222222226,70,20,13.8,GD,1707771423
94,jianshui,23.6363,102.8264,10.288888888888891,94,2,3.36,CN,1707771423
95,awjilah,29.1081,21.2869,14.85,49,7,8.81,LY,1707771423
96,carnarvon,-24.8667,113.6333,24.86111111111111,71,0,17.81,AU,1707771423
97,plastun,44.7561,136.2939,-4.95,82,5,5.73,RU,1707771423
98,caiaponia,-16.9567,-51.8103,24.722222222222225,78,51,5.68,BR,1707771316
99,enewetak,11.3474,162.3373,26.477777777777778,76,99,21.3,MH,1707771423
100,lorengau,-2.0226,147.2712,27.48888888888889,80,100,9.17,PG,1707771423
101,sur,22.5667,59.5289,21.611111111111114,80,94,8.23,OM,1707771424
102,sola,-13.8833,167.55,27.52777777777778,73,99,10.07,VU,1707771424
103,myrina,39.8797,25.0742,14.327777777777778,70,100,7.18,GR,1707771424
104,gordonvale,-17.0936,145.7842,24.95,100,32,3.33,AU,1707771424
105,aykhal,66.0,111.5,-37.76111111111111,100,100,5.48,RU,1707771424
106,mahibadhoo,3.7833,72.9667,27.2,77,99,11.43,MV,1707771424
107,kapa'a,22.0752,-159.319,26.17777777777778,56,0,4.0,US,1707771424
108,udachny,66.4167,112.4,-36.422222222222224,66,100,9.01,RU,1707771424
109,nchelenge,-9.3451,28.734,21.838888888888892,88,100,3.96,ZM,1707771424
110,orapa,-21.2833,25.3667,25.87222222222222,41,0,15.88,BW,1707771425
111,qaqortoq,60.7167,-46.0333,-5.0,95,100,10.49,GL,1707771425
112,vyaz'ma,55.2104,34.2951,-0.7222222222222227,98,100,5.46,RU,1707771425
113,rabo de peixe,37.8,-25.5833,17.772222222222226,99,75,16.11,PT,1707771425
114,cill airne,52.05,-9.5167,5.311111111111113,90,80,5.55,IE,1707771425
115,puerto natales,-51.7236,-72.4875,12.588888888888887,61,100,4.25,CL,1707771425
116,borogontsy,62.6683,131.1683,-26.23888888888889,99,100,3.58,RU,1707771425
117,palikir - national government center,6.9248,158.1611,27.411111111111115,78,100,8.05,FM,1707771425
118,san luis,-33.295,-66.3356,25.038888888888888,35,0,20.0,AR,1707771425
119,boa vista,2.8197,-60.6733,33.988888888888894,40,75,14.97,BR,1707771425
120,vilyuchinsk,52.9306,158.4028,-17.261111111111113,88,8,7.92,RU,1707771425
121,hammerfest,70.6634,23.6821,-4.750000000000001,74,0,4.61,NO,1707771426
122,bryan,30.6744,-96.37,15.422222222222222,45,0,18.41,US,1707771426
123,sibenik,43.7272,15.9058,10.211111111111112,89,27,1.01,HR,1707771426
124,tura,25.5198,90.2201,11.900000000000002,31,18,2.42,IN,1707771426
125,tazovsky,67.4667,78.7,-38.56111111111111,100,27,3.31,RU,1707771426
126,weno,7.4515,151.8468,26.97222222222222,78,100,13.8,FM,1707771426
127,aflao,6.116,1.1914,30.07222222222222,84,20,9.22,TG,1707771426
128,iqaluit,63.7506,-68.5145,-25.15,69,100,6.91,CA,1707771426
129,port elizabeth,-33.918,25.5701,20.172222222222224,91,0,4.61,ZA,1707771243
130,mhamid,29.82,-5.72,21.91111111111111,21,1,6.89,MA,1707771426
131,korla,41.7597,86.1469,0.6277777777777792,59,100,12.97,CN,1707771427
132,oriximina,-1.7656,-55.8661,29.86111111111111,70,38,5.17,BR,1707771427
133,katsuura,35.1333,140.3,10.799999999999999,64,7,18.03,JP,1707771427
134,chul'man,56.8479,124.9104,-25.250000000000004,100,99,1.34,RU,1707771427
135,vikhorevka,56.1201,101.1636,-16.227777777777778,90,100,9.28,RU,1707771427
136,cole harbour,44.6724,-63.4751,5.1,66,20,9.22,CA,1707771427
137,beyneu,45.3167,55.2,5.261111111111111,71,61,14.45,KZ,1707771427
138,nueva palestina,15.8,-92.75,32.77222222222222,25,5,4.18,MX,1707771427
139,altay,47.8667,88.1167,-20.211111111111112,73,4,7.45,CN,1707771427
140,anadyr,64.75,177.4833,-29.722222222222225,74,0,8.95,RU,1707771427
141,yung shue wan,22.2333,114.1167,17.677777777777777,79,56,1.01,HK,1707771428
142,isafjordur,66.0755,-23.124,-0.22777777777777786,92,100,24.34,IS,1707771428
143,dampit,-8.2116,112.7493,21.961111111111112,97,88,1.39,ID,1707771305
144,west freehold,40.2421,-74.3013,9.9,67,100,5.75,US,1707771428
145,taoudenni,22.6783,-3.9836,27.4,30,0,11.3,ML,1707771428
146,rio grande,-32.035,-52.0986,34.06111111111112,89,91,11.9,BR,1707771422
147,padang,-0.9492,100.3543,27.027777777777782,83,55,3.42,ID,1707771428
148,cabo san lucas,22.8909,-109.9124,24.777777777777775,47,0,4.0,MX,1707771245
149,new norfolk,-42.7826,147.0587,14.95,68,18,2.24,AU,1707771428
150,haiku-pauwela,20.9219,-156.3051,26.25,59,0,10.36,US,1707771428
151,kudahuvadhoo,2.6708,72.8944,25.92777777777778,83,100,11.88,MV,1707771428
152,praia da vitoria,38.7333,-27.0667,17.13888888888889,77,40,26.13,PT,1707771428
153,bredasdorp,-34.5322,20.0403,20.08888888888889,90,23,6.82,ZA,1707771429
154,calvinia,-31.4707,19.776,22.822222222222223,34,0,5.93,ZA,1707771429
155,sao miguel,-5.4667,-35.3667,29.427777777777777,75,4,15.79,BR,1707771429
156,es castell,39.8795,4.2854,13.377777777777778,76,0,5.75,ES,1707771429
157,semera,11.501,41.201,24.850000000000005,59,100,14.38,ET,1707771429
158,ulcinj,41.9294,19.2244,8.877777777777776,71,89,8.48,ME,1707771429
159,nantucket,41.2835,-70.0995,6.077777777777777,81,0,8.05,US,1707771429
160,ilebo,-4.3167,20.5833,24.972222222222225,79,100,2.3,CD,1707771429
161,alice springs,-23.7,133.8833,22.750000000000004,94,100,5.75,AU,1707771429
162,san antonio de pale,-1.4014,5.6325,28.527777777777775,83,28,4.36,GQ,1707771429
163,strugi-krasnyye,58.2675,29.1114,-4.322222222222223,93,100,10.92,RU,1707771430
164,urangan,-25.3,152.9,24.000000000000004,93,83,5.99,AU,1707771430
165,arvayheer,46.2639,102.775,-12.011111111111111,82,40,5.32,MN,1707771430
166,severo-yeniseyskiy,60.3725,93.0408,-24.727777777777778,94,100,6.69,RU,1707771430
167,lihue,21.9789,-159.3672,25.772222222222222,56,0,3.44,US,1707771206
168,klazienaveen,52.7242,6.9903,5.511111111111112,89,5,8.28,NL,1707771430
169,mahasamund,21.1,82.1,21.172222222222224,64,56,6.93,IN,1707771430
170,la passe,45.5549,-0.8967,9.127777777777778,86,34,3.74,FR,1707771430
171,ilulissat,69.2167,-51.1,-31.62777777777778,77,74,3.24,GL,1707771430
172,laojunmiao,39.8333,97.7333,-2.2222222222222223,41,100,2.75,CN,1707771430
173,lerwick,60.1545,-1.1494,5.999999999999999,80,29,18.66,GB,1707771430
174,brisas de zicatela,15.8369,-97.0419,29.327777777777783,59,4,9.35,MX,1707771431
175,cidreira,-30.1811,-50.2056,25.91111111111111,80,97,6.13,BR,1707771431
176,harper,4.375,-7.7169,27.688888888888894,84,98,7.23,LR,1707771431
177,pedernales,18.0384,-71.744,29.122222222222224,62,8,4.34,DO,1707771431
178,georgetown,5.4112,100.3354,26.961111111111112,73,20,9.22,MY,1707771424
179,malanje,-9.5402,16.341,19.73888888888889,91,8,1.97,AO,1707771262
180,san luis de la loma,17.2706,-100.8939,28.35,58,22,8.55,MX,1707771431
181,itapirapua,-15.8233,-50.6133,27.849999999999998,72,62,3.58,BR,1707771431
182,okha,53.5739,142.9478,-15.0,98,94,9.4,RU,1707771431
183,kismayo,-0.3582,42.5454,26.677777777777777,83,68,15.01,SO,1707771431
184,kruisfontein,-34.0033,24.7314,22.26111111111111,64,0,4.34,ZA,1707771431
185,eqbaliyeh,35.3022,51.5358,12.9,30,9,4.54,IR,1707771432
186,nieuw amsterdam,5.8833,-55.0833,28.011111111111113,78,40,11.5,SR,1707771432
187,idri,27.5,13.2667,17.411111111111115,33,0,8.84,LY,1707771432
188,iringa,-7.7667,35.7,16.35,93,100,2.91,TZ,1707771432
189,tinajo,29.0788,-13.7081,19.488888888888887,73,0,11.5,ES,1707771432
190,kotra,25.8167,79.3167,15.572222222222223,49,3,7.36,IN,1707771432
191,basco,20.4487,121.9702,21.52222222222222,61,100,19.17,PH,1707771432
192,reggane,26.7158,0.1714,23.95,23,0,6.46,DZ,1707771432
193,uturoa,-16.7333,-151.4333,26.638888888888893,94,100,19.82,PF,1707771432
194,quellon,-43.1167,-73.6167,18.177777777777777,34,12,8.59,CL,1707771432
195,ebon,4.582,168.6964,27.922222222222228,80,96,20.8,MH,1707771432
196,itaituba,-4.2761,-55.9836,30.08888888888889,74,75,5.75,BR,1707771433
197,hammond,41.5834,-87.5,8.61111111111111,51,0,5.75,US,1707771433
198,tofol,5.3248,163.0078,27.877777777777784,81,100,18.41,FM,1707771433
199,aqadyr,48.2553,72.8483,-20.427777777777777,92,52,8.21,KZ,1707771433
200,bel ombre,-4.6167,55.4167,28.911111111111115,79,75,11.5,SC,1707771433
201,rikaze,29.25,88.8833,-1.950000000000001,18,70,4.0,CN,1707771433
202,correntina,-13.3433,-44.6367,24.93888888888889,74,100,2.3,BR,1707771433
203,namibe,-15.1961,12.1522,26.772222222222222,72,100,10.2,AO,1707771433
204,mount isa,-20.7333,139.5,25.87222222222222,83,75,4.61,AU,1707771433
205,lake alfred,28.092,-81.7234,28.922222222222224,54,40,23.02,US,1707771433
206,uliastay,47.7417,96.8444,-22.561111111111114,87,4,7.74,MN,1707771433
207,usinsk,65.9939,57.5281,-29.400000000000002,98,7,4.0,RU,1707771434
208,belaya kholunitsa,58.84,50.8528,-11.15,96,100,4.41,RU,1707771434
209,chonchi,-42.6128,-73.8092,17.56111111111111,37,26,4.56,CL,1707771434
210,kintinku,-5.8833,35.2333,21.27777777777778,96,100,2.93,TZ,1707771434
211,mahina,-17.5065,-149.489,27.872222222222224,83,75,10.36,PF,1707771434
212,tromso,69.6496,18.957,-6.988888888888888,63,0,8.05,NO,1707771434
213,sulzbach am main,49.9108,9.1592,7.92777777777778,93,100,4.61,DE,1707771434
214,spassk-ryazanskiy,54.4072,40.3806,-2.5222222222222217,98,100,1.21,RU,1707771434
215,marine corps base hawaii - mcbh,21.4453,-157.7513,27.977777777777778,60,20,6.91,US,1707771434
216,albertina,-22.2008,-46.6158,25.700000000000003,60,95,7.09,BR,1707771435
217,tatarsk,55.219,75.9828,-22.127777777777776,98,100,6.89,RU,1707771435
218,ambon,-3.6954,128.1814,26.07777777777778,89,40,2.3,ID,1707771435
219,gunjur,13.2019,-16.7339,26.03888888888889,73,0,10.36,GM,1707771435
220,whitehorse,60.7161,-135.0538,-5.661111111111112,68,20,5.75,CA,1707771435
221,saratovskaya,44.7103,39.2244,11.55,60,100,3.22,RU,1707771186
222,utrik,11.2278,169.8474,26.372222222222224,77,100,20.49,MH,1707771435
223,steinbach,50.1667,8.5667,7.6611111111111105,80,20,8.05,DE,1707771435
224,kuningan,-6.9758,108.4831,21.211111111111116,95,26,3.22,ID,1707771435
225,northam,51.0333,-4.2167,5.772222222222223,82,83,15.37,GB,1707771436
226,afaahiti,-17.75,-149.2833,26.927777777777777,94,100,28.9,PF,1707771436
227,yiyang,28.5892,112.3283,12.511111111111113,77,97,6.38,CN,1707771436
228,wetumpka,32.5437,-86.2119,18.038888888888888,98,100,14.41,US,1707771436
229,novodvinsk,64.4165,40.8122,-22.92222222222222,100,55,3.33,RU,1707771436
230,monrovia,6.3005,-10.7969,28.077777777777783,84,99,8.19,LR,1707771436
231,oshawa,43.9001,-78.8496,3.4722222222222223,63,100,10.36,CA,1707771436
232,holualoa,19.6228,-155.9522,25.311111111111114,72,20,4.61,US,1707771436
233,midvagur,62.0511,-7.1939,4.461111111111112,87,100,12.66,FO,1707771436
234,turpan,42.9333,89.1667,3.738888888888887,46,100,3.51,CN,1707771437
235,nova sintra,14.8667,-24.7167,20.47222222222222,81,67,9.01,CV,1707771437
236,lohaghat,29.4036,80.0897,5.977777777777777,37,100,3.22,IN,1707771437
237,jaru,-10.4389,-62.4664,23.138888888888893,99,100,2.89,BR,1707771437
238,i-n-salah,27.1935,2.4607,22.072222222222226,26,0,4.07,DZ,1707771437
239,ceelbuur,4.685,46.6176,25.400000000000002,75,4,12.91,SO,1707771437
240,st. john's,47.5649,-52.7093,2.6,95,100,12.66,CA,1707771303
241,boguchany,58.3814,97.4531,-16.22222222222222,91,100,9.84,RU,1707771437
242,taro,-8.3862,115.28,23.000000000000004,93,98,0.87,ID,1707771437
243,prince rupert,54.3161,-130.3201,5.0500000000000025,93,100,8.05,CA,1707771437
244,pisco,-13.7,-76.2167,28.027777777777782,65,75,17.27,PE,1707771437
245,khandyga,62.6667,135.6,-23.56111111111111,99,100,3.91,RU,1707771438
246,plettenberg bay,-34.0527,23.3716,21.599999999999998,58,0,6.85,ZA,1707771438
247,broken hill,-31.95,141.4333,26.511111111111113,42,1,10.96,AU,1707771377
248,kaa-khem,51.6833,94.7333,-18.111111111111114,94,100,5.28,RU,1707771438
249,malmberget,67.1753,20.6549,-21.68888888888889,84,100,0.0,SE,1707771438
250,san-pedro,4.7485,-6.6363,27.350000000000005,85,70,5.48,CI,1707771438
251,kingston,17.997,-76.7936,30.688888888888886,63,20,23.02,JM,1707771257
252,lhasa,29.65,91.1,-1.5777777777777777,26,6,2.46,CN,1707771438
253,manadhoo,5.7667,73.3833,28.011111111111113,74,41,12.64,MV,1707771438
254,wagar,16.1525,36.2032,24.42222222222222,36,1,8.08,SD,1707771438
255,camiri,-20.05,-63.5167,35.87777777777778,34,40,11.5,BO,1707771438
256,pelabuhanratu,-6.9875,106.5514,25.2,89,21,4.18,ID,1707771438
257,masina,-4.3836,15.3914,31.161111111111115,70,20,11.5,CD,1707771439
258,saint-francois,46.4154,3.9054,5.377777777777778,93,0,2.3,FR,1707771439
259,byron bay,-28.65,153.6167,19.838888888888885,69,100,2.19,AU,1707771439
260,mili,6.0815,171.735,27.800000000000004,73,100,21.23,MH,1707771439
261,lensk,60.7253,114.9278,-28.35,96,98,4.97,RU,1707771439
262,aasiaat,68.7098,-52.8699,-30.422222222222228,95,100,4.79,GL,1707771439
263,bella vista,36.4295,-94.2316,3.6388888888888875,91,100,10.36,US,1707771439
264,taltal,-25.4,-70.4833,22.06111111111111,74,100,5.61,CL,1707771439
265,spring lake,35.1679,-78.9728,16.18888888888889,93,100,9.22,US,1707771439
266,ahmadpur,18.7,76.9333,23.588888888888885,42,78,12.91,IN,1707771440
267,ruidoso,33.3317,-105.673,8.26111111111111,38,0,12.66,US,1707771155
268,badger,64.8,-147.5333,-10.911111111111111,80,75,3.44,US,1707771440
269,achinsk,56.2694,90.4993,-18.450000000000003,89,100,12.93,RU,1707771440
270,vershino-darasunskiy,52.35,115.5167,-19.45,98,78,3.13,RU,1707771440
271,aldinga beach,-35.2793,138.4604,25.6,57,5,4.05,AU,1707771440
272,nemuro,43.3236,145.575,-2.000000000000001,76,45,13.78,JP,1707771440
273,flying fish cove,-10.4217,105.6791,25.822222222222226,88,18,5.75,CX,1707771440
274,sosnovyy bor,59.9,29.1167,-9.688888888888888,88,13,13.24,RU,1707771440
275,togur,58.3631,82.8265,-19.08888888888889,95,99,8.55,RU,1707771440
276,kodiak,57.79,-152.4072,5.72777777777778,87,100,16.11,US,1707771441
277,newman,37.3138,-121.0208,16.238888888888887,72,100,5.01,US,1707771441
278,xiaoshi,41.2971,124.1209,0.5888888888888901,97,91,8.03,CN,1707771441
279,lamu,-2.2717,40.902,26.799999999999997,84,89,12.97,KE,1707771262
280,hasaki,35.7333,140.8333,-0.777777777777777,56,6,17.54,JP,1707771441
281,alghero,40.5589,8.3181,10.050000000000002,93,0,2.3,IT,1707771441
282,sacramento,38.4666,-121.3177,17.37777777777778,64,0,4.61,US,1707771181
283,mezhdurechensk,53.6942,88.0603,-15.3,95,100,5.93,RU,1707771441
284,mildura,-34.2,142.15,27.26111111111111,59,0,12.41,AU,1707771441
285,ghormach,35.7306,63.7826,10.622222222222222,44,2,4.38,AF,1707771441
286,meadow lakes,61.6247,-149.6011,4.238888888888891,63,100,10.36,US,1707771441
287,san jose de mayo,-34.3375,-56.7136,22.71111111111111,84,98,21.63,UY,1707771442
288,vorkuta,67.5,64.0,-36.800000000000004,100,25,4.18,RU,1707771442
289,vangaindrano,-23.35,47.6,24.150000000000002,90,100,4.52,MG,1707771442
290,gazojak,41.1875,61.4036,7.727777777777776,48,100,9.75,TM,1707771442
291,vize,41.5725,27.7658,9.022222222222224,92,100,6.96,TR,1707771442
292,stara tura,48.7772,17.6943,7.149999999999999,83,100,1.14,SK,1707771442
293,usogorsk,63.4106,48.6872,-26.85,100,99,3.74,RU,1707771442
294,nadym,65.5333,72.5167,-37.150000000000006,100,18,5.99,RU,1707771442
295,gaiman,-43.2897,-65.4929,18.16111111111111,32,53,17.74,AR,1707771442
296,hithadhoo,-0.6,73.0833,26.827777777777783,84,100,17.11,MV,1707771442
297,mandaguari,-23.5475,-51.6708,30.6,48,100,4.21,BR,1707771443
298,chernyshevskiy,63.0128,112.4714,-32.422222222222224,100,98,2.8,RU,1707771443
299,andratx,39.5755,2.4202,17.56111111111111,68,0,30.31,ES,1707771443
300,yangshuo,24.7808,110.4897,12.588888888888887,63,4,2.93,CN,1707771443
301,yerofey pavlovich,53.9667,121.9667,-15.788888888888891,92,100,3.53,RU,1707771443
302,sucua,-2.4667,-78.1667,22.411111111111115,94,100,5.75,EC,1707771443
303,banda aceh,5.5577,95.3222,28.027777777777782,77,0,27.13,ID,1707771443
304,galliano,29.4422,-90.2992,19.000000000000004,48,0,17.27,US,1707771443
305,kulykivka,51.3735,31.6466,6.572222222222222,97,100,5.61,UA,1707771443
306,banjar,-8.19,114.9675,27.750000000000004,74,100,2.59,ID,1707771443
307,ghadamis,30.1337,9.5007,18.672222222222224,43,0,9.28,LY,1707771443
308,anloga,5.7947,0.8973,28.000000000000004,84,0,9.28,GH,1707771444
309,hadibu,12.65,54.0333,25.572222222222223,74,24,13.0,YE,1707771444
310,verwood,50.8758,-1.8702,7.377777777777779,87,0,5.75,GB,1707771444
311,luderitz,-26.6481,15.1594,18.177777777777777,93,0,11.74,NA,1707771444
312,lysyye gory,51.5506,44.8414,3.172222222222223,100,100,12.03,RU,1707771444
313,yinchuan,38.4681,106.2731,2.2888888888888874,26,27,4.76,CN,1707771444
314,tres lagoas,-20.7511,-51.6783,32.97222222222222,38,100,8.84,BR,1707771247
315,bodaybo,57.8506,114.1933,-16.85,91,100,5.93,RU,1707771444
316,oppdal,62.5943,9.6912,-7.127777777777777,88,100,8.77,NO,1707771444
317,yulinshi,38.2906,109.7494,2.2777777777777786,35,0,5.64,CN,1707771444
318,kirakira,-10.4544,161.9205,27.82777777777778,77,70,15.48,SB,1707771444
319,bardai,11.65,7.2333,24.93888888888889,13,1,9.35,NG,1707771445
320,semey,50.4111,80.2275,-15.3,89,17,5.88,KZ,1707771445
321,dudinka,69.4058,86.1778,-37.4,99,14,4.0,RU,1707771445
322,sibiti,-3.6819,13.3499,23.53888888888889,90,87,0.18,CG,1707771445
323,margate,51.3813,1.3862,5.938888888888888,70,15,5.01,GB,1707771445
324,pimentel,-6.8367,-79.9342,29.161111111111108,58,75,18.41,PE,1707771445
325,carauari,-4.8828,-66.8958,27.7,90,83,2.62,BR,1707771445
326,rongelap,11.1635,166.8941,26.4,79,74,21.3,MH,1707771445
327,howrah,22.5892,88.3103,19.000000000000004,82,40,0.0,IN,1707771445
328,porto belo,-27.1578,-48.5531,32.82777777777778,86,73,10.54,BR,1707771445
329,hirara,24.8,125.2833,17.15,67,100,4.61,JP,1707771446
330,tucupita,9.0622,-62.051,31.688888888888894,45,64,9.1,VE,1707771223
331,totskoye,52.5248,52.7623,-8.95,95,100,12.33,RU,1707771446
332,kavaratti,10.5669,72.642,27.7,70,78,6.82,IN,1707771446
333,vuktyl,63.8567,57.3094,-18.82777777777778,99,100,3.0,RU,1707771446
334,umm kaddadah,13.6017,26.6876,23.62777777777778,11,100,11.54,SD,1707771446
335,codrington,-38.2667,141.9667,17.772222222222226,65,55,5.53,AU,1707771446
336,arta,39.1606,20.9853,10.311111111111114,91,100,2.21,GR,1707771446
337,ouadda,8.0777,22.4007,27.472222222222225,22,100,3.94,CF,1707771446
338,portland,45.5234,-122.6762,12.911111111111113,68,75,9.22,US,1707771266
339,dunedin,-45.8742,170.5036,17.472222222222225,51,100,1.48,NZ,1707771446
340,erenhot,43.6475,111.9767,-6.422222222222222,79,5,8.57,CN,1707771446
341,abu jibeha,11.4562,31.2285,26.222222222222225,9,90,6.51,SD,1707771447
342,puerto lempira,15.2667,-83.7667,30.07777777777778,66,40,13.8,HN,1707771305
343,shenjiamen,29.9576,122.298,10.250000000000002,85,89,16.22,CN,1707771447
344,nouadhibou,20.931,-17.0347,20.98888888888889,73,0,13.8,MR,1707771447
345,tanout,14.9709,8.8879,23.62222222222222,9,0,10.89,NE,1707771447
346,zhanibek,49.4167,46.85,1.4388888888888909,100,100,10.31,KZ,1707771447
347,revda,56.801,59.9303,-11.761111111111113,82,100,6.22,RU,1707771447
348,marsa alam,25.0757,34.8918,20.122222222222224,51,24,2.17,EG,1707771169
349,guerrero negro,27.9769,-114.0611,19.15,29,0,3.47,MX,1707771447
350,polyarnyy,69.1989,33.4478,-21.18888888888889,100,80,8.97,RU,1707771447
351,le port,-20.9373,55.2919,27.977777777777778,86,80,3.53,RE,1707771447
352,entebbe,0.0644,32.4469,23.22777777777778,76,82,6.85,UG,1707771448
353,taroa,8.7058,171.2275,27.4,75,96,22.79,MH,1707771448
354,kone,-21.0595,164.8658,26.52777777777778,72,0,3.98,NC,1707771448
355,hovd,48.0056,91.6419,-13.422222222222222,44,0,8.72,MN,1707771448
356,leava,-14.3,-178.1667,28.62222222222222,82,100,19.51,WF,1707771448
357,kolo,52.2002,18.6387,6.272222222222222,82,100,15.01,PL,1707771448
358,pechora,65.1472,57.2244,-27.86111111111111,98,99,4.0,RU,1707771448
359,choibalsan,48.0667,114.5,-9.227777777777778,76,63,15.14,MN,1707771448
360,pinsk,52.1229,26.0951,7.3388888888888895,95,98,4.72,BY,1707771448
361,lebu,-37.6167,-73.65,14.911111111111113,70,0,26.06,CL,1707771448
362,ar rumaythah,31.5263,45.2025,16.73888888888889,49,7,7.92,IQ,1707771449
363,lagunas,-5.2269,-75.6753,27.800000000000004,85,67,2.95,PE,1707771449
364,suva,-18.1416,178.4415,29.711111111111116,84,40,4.61,FJ,1707771454
365,kushiro,42.975,144.3747,3.5277777777777786,52,40,11.5,JP,1707771454
366,xinyuan,37.3,99.0,-9.549999999999999,29,43,5.91,CN,1707771454
367,makar'yev,57.8797,43.8069,-7.988888888888889,96,100,5.97,RU,1707771454
368,hotan,37.0997,79.9269,5.261111111111111,30,100,6.02,CN,1707771454
369,brainerd,46.358,-94.2008,2.1388888888888897,68,100,6.91,US,1707771262
370,preobrazheniye,42.9019,133.9064,-4.188888888888888,95,35,4.32,RU,1707771454
371,kalashnikovo,57.2824,35.2262,-6.03888888888889,95,100,7.76,RU,1707771454
372,sunne,59.8376,13.143,-3.7722222222222217,96,100,7.36,SE,1707771454
373,naze,28.3667,129.4833,8.511111111111111,60,66,9.31,JP,1707771455
374,sahaswan,28.0833,78.75,13.55,45,63,5.1,IN,1707771455
375,novyye burasy,52.1324,46.0714,-1.861111111111112,99,100,7.07,RU,1707771455
376,calatayud,41.3535,-1.6432,8.638888888888888,75,32,0.27,ES,1707771455
377,puerto baquerizo moreno,-0.9,-89.6,28.55,79,75,8.05,EC,1707771455
378,timbuktu,16.7735,-3.0074,27.738888888888894,6,0,9.78,ML,1707771455
379,ishigaki,24.3448,124.1572,19.072222222222223,55,20,8.05,JP,1707771455
380,mimon,50.6587,14.7247,6.25,93,48,4.34,CZ,1707771455
381,haraiya,26.8,82.4667,14.172222222222222,43,57,5.14,IN,1707771455
382,erdenet,49.0333,104.0833,-15.950000000000001,98,100,2.86,MN,1707771456
383,faya-largeau,17.9257,19.1043,25.177777777777774,10,0,6.89,TD,1707771456
384,montes claros,-16.735,-43.8617,29.87777777777778,48,20,10.36,BR,1707771456
385,lompoc,34.6391,-120.4579,18.077777777777783,57,0,9.22,US,1707771296
386,kamaishi,39.2667,141.8833,0.9777777777777767,84,7,6.82,JP,1707771456
387,sodankyla,67.4167,26.6,-25.477777777777778,100,100,2.26,FI,1707771456
388,yuzhno-kurilsk,44.0306,145.8556,-5.35,80,96,10.0,RU,1707771456
389,yen bai,21.7,104.8667,15.86111111111111,88,84,0.2,VN,1707771456
390,nacala,-14.5428,40.6728,23.977777777777778,97,100,6.96,MZ,1707771456
391,kralendijk,12.15,-68.2667,29.98888888888889,66,75,18.41,BQ,1707771322
392,menongue,-14.6585,17.691,18.35,91,97,1.77,AO,1707771457
393,howard springs,-12.497,131.047,25.95,96,100,9.01,AU,1707771457
394,manokwari,-0.8667,134.0833,25.388888888888893,80,38,4.88,ID,1707771457
395,lovosice,50.515,14.051,6.67777777777778,99,73,11.99,CZ,1707771462
396,sinabang,2.4803,96.3801,27.16111111111111,77,1,1.01,ID,1707771462
397,tevriz,57.509,72.4042,-28.572222222222223,100,100,3.42,RU,1707771462
398,marion,39.7684,-86.1555,9.21111111111111,55,75,9.22,US,1707771462
399,selfoss,63.9331,-20.9971,-4.227777777777778,83,100,10.6,IS,1707771462
400,palmerston,-12.486,130.9833,25.98888888888889,91,100,14.97,AU,1707771463
401,san ignacio,17.1561,-89.0714,31.07777777777778,66,40,11.5,BZ,1707771463
402,berbera,10.4396,45.0143,26.01111111111111,81,47,6.69,SO,1707771463
403,inarajan village,13.2736,144.7484,26.07777777777778,84,99,20.69,GU,1707771463
404,al bardiyah,31.7561,25.0865,14.95,70,77,14.14,LY,1707771463
405,saint-pierre,-21.3393,55.4781,26.822222222222223,83,0,2.3,RE,1707771463
406,kolonia town,6.964,158.206,28.000000000000004,78,100,8.05,FM,1707771463
407,sitka,57.0531,-135.33,3.938888888888891,87,20,3.44,US,1707771463
408,moroni,-11.7022,43.2551,27.011111111111116,85,100,8.9,KM,1707771463
409,altagracia de orituco,9.8601,-66.3814,31.172222222222224,39,75,6.46,VE,1707771463
410,tsarychanka,48.937,34.4786,9.31111111111111,86,100,11.45,UA,1707771463
411,grand falls-windsor,48.9332,-55.6649,1.949999999999999,90,100,3.09,CA,1707771463
412,jayapura,-2.5333,140.7,24.66111111111111,92,97,3.62,ID,1707771464
413,powell river,49.8496,-124.5361,8.900000000000002,93,75,2.3,CA,1707771464
414,smidovich,48.6,133.8167,-12.172222222222222,98,100,2.86,RU,1707771464
415,bocas del toro,9.3333,-82.25,25.588888888888892,76,59,7.94,PA,1707771464
416,mysore,12.3072,76.6497,18.73888888888889,63,62,5.41,IN,1707771464
417,bestobe,52.4994,73.0975,-14.1,83,100,13.15,KZ,1707771464
418,tarawa,1.419,172.984,28.16111111111111,82,100,15.99,KI,1707771464
419,huarmey,-10.0681,-78.1522,26.777777777777782,74,90,11.21,PE,1707771464
420,adiake,5.2863,-3.304,27.072222222222226,87,69,5.41,CI,1707771464
421,maricopa,33.0581,-112.0476,18.41111111111111,42,0,6.91,US,1707771464
422,masterton,-40.9597,175.6575,17.83888888888889,55,9,1.32,NZ,1707771464
423,tamanrasset,22.785,5.5228,18.95,26,0,2.3,DZ,1707771465
424,tselinnoye,53.0833,85.6667,-15.18888888888889,90,100,13.44,RU,1707771465
425,cedeira,43.6797,-8.0209,13.238888888888889,81,100,8.1,ES,1707771465
426,san andres,12.5847,-81.7006,30.01111111111111,74,20,12.66,CO,1707771465
427,namtsy,62.7161,129.6658,-27.127777777777776,99,100,3.71,RU,1707771465
428,marka,1.7159,44.7717,25.688888888888886,88,41,15.28,SO,1707771465
429,nelson bay,-32.7167,152.15,23.377777777777776,85,0,7.0,AU,1707771465
430,eyl,7.9803,49.8164,25.022222222222226,80,5,11.92,SO,1707771465
431,genhe,50.7833,121.5167,-8.65,97,100,2.1,CN,1707771465
432,lagoa,39.05,-27.9833,15.98888888888889,81,100,33.17,PT,1707771465
433,ardakan,32.31,54.0175,10.777777777777777,26,0,0.58,IR,1707771466
434,el alto,-4.2714,-81.2147,30.81111111111111,66,23,13.71,PE,1707771466
435,chemin grenier,-20.4872,57.4656,26.772222222222222,78,27,11.72,MU,1707771466
436,mourmelon-le-grand,49.1326,4.3642,4.3611111111111125,93,23,2.3,FR,1707771466
437,yenangyaung,20.4667,94.8833,20.522222222222222,38,57,3.87,MM,1707771466
438,vernon,50.2581,-119.2691,6.272222222222222,90,44,1.14,CA,1707771466
439,mejit,10.2753,170.8646,26.488888888888894,80,100,22.66,MH,1707771466
440,pasni,25.2631,63.471,20.02777777777778,71,100,2.19,PK,1707771466
441,shalkar,47.8288,59.6258,-7.427777777777779,83,100,7.61,KZ,1707771466
442,gaalkacyo,6.7697,47.4308,24.02777777777778,72,3,12.93,SO,1707771466
443,ende,-8.8432,121.6623,24.82777777777778,88,100,0.94,ID,1707771466
444,metlili chaamba,32.2667,3.6333,22.522222222222226,33,0,10.36,DZ,1707771467
445,quixeramobim,-5.1992,-39.2928,29.650000000000002,52,86,3.83,BR,1707771467
446,ashgabat,37.95,58.3833,9.922222222222222,57,28,4.61,TM,1707771467
447,griffith,41.5284,-87.4237,8.36111111111111,51,0,5.75,US,1707771467
448,mlangali,-9.7833,34.5167,15.422222222222222,98,99,0.94,TZ,1707771467
449,queenstown,-31.8976,26.8753,18.400000000000002,77,0,3.06,ZA,1707771302
450,darwha,20.3167,77.7667,23.82777777777778,43,83,6.35,IN,1707771467
451,kununurra,-15.7667,128.7333,25.98888888888889,94,40,5.75,AU,1707771467
452,kovdor,67.5662,30.4758,-25.7,100,100,3.47,RU,1707771467
453,ulsteinvik,62.3432,5.8487,5.172222222222223,74,100,5.99,NO,1707771467
454,ad darb,17.7229,42.2526,26.727777777777778,75,0,6.06,SA,1707771467
455,aral,40.5156,81.2636,2.5722222222222237,48,100,3.76,CN,1707771468
456,bikenibeu village,1.3673,173.1241,28.072222222222223,82,100,16.24,KI,1707771468
457,sompeta,18.9333,84.6,20.838888888888892,70,73,2.84,IN,1707771468
458,ketchikan,55.3422,-131.6461,6.8611111111111125,81,75,8.05,US,1707771468
459,nabire,-3.3667,135.4833,24.277777777777782,92,90,2.86,ID,1707771468
460,kijang,35.2442,129.2139,0.8500000000000006,77,18,7.83,KR,1707771468
461,port moresby,-9.4431,147.1797,24.150000000000002,89,34,3.47,PG,1707771468
462,mabai,23.0128,104.4508,6.227777777777779,89,13,2.91,CN,1707771468
463,mount pearl,47.5166,-52.7813,2.1388888888888897,95,100,12.66,CA,1707771353
464,ad dilam,23.9915,47.1627,14.227777777777778,60,0,5.21,SA,1707771468
465,susuman,62.7833,148.1667,-41.12222222222223,100,78,1.01,RU,1707771468
466,itaberai,-16.0203,-49.8103,25.677777777777777,76,89,3.02,BR,1707771469
467,mtama,-10.3,39.3667,23.3,95,100,2.98,TZ,1707771469
468,lingig,8.0389,126.4125,24.47777777777778,89,99,8.5,PH,1707771469
469,mizan teferi,6.9833,35.5833,20.450000000000003,70,98,3.49,ET,1707771469
470,yaren,-0.5472,166.916,28.388888888888886,78,83,10.69,NR,1707771469
471,egilsstadir,65.2653,-14.3948,-0.049999999999999926,100,100,18.41,IS,1707771469
472,nishinoomote,30.7333,131.0,13.761111111111113,68,2,6.71,JP,1707771469
473,lodja,-3.4833,23.4333,23.75,77,77,1.72,CD,1707771469
474,olyokminsk,60.3736,120.4264,-25.772222222222222,92,100,7.74,RU,1707771469
475,bani suwayf,29.0744,31.0979,19.322222222222223,18,100,8.41,EG,1707771469
476,karachi,24.9056,67.0822,17.9,55,93,0.0,PK,1707771382
477,sao jose da coroa grande,-8.8978,-35.1478,26.272222222222226,80,33,6.38,BR,1707771470
478,ola,59.5833,151.2833,-24.65,95,98,6.64,RU,1707771470
479,tsiombe,-25.3,45.4833,23.788888888888888,93,98,10.22,MG,1707771470
480,tidjikja,18.5564,-11.4271,27.538888888888888,25,0,9.31,MR,1707771470
481,zaozersk,69.4005,32.4476,-22.08888888888889,100,48,3.65,RU,1707771470
482,center,31.5107,-96.4247,14.027777777777779,55,0,13.8,US,1707771470
483,xai-xai,-25.0519,33.6442,22.18888888888889,72,0,5.7,MZ,1707771470
484,conde,-7.2597,-34.9075,29.7,74,40,16.11,BR,1707771330
485,bima,-8.4667,118.7167,24.911111111111115,95,100,0.72,ID,1707771470
486,okhotsk,59.3833,143.3,-30.472222222222225,96,90,7.38,RU,1707771470
487,molde,62.7375,7.1591,3.911111111111111,56,75,5.75,NO,1707771471
488,mogok,22.9167,96.5,12.700000000000001,47,2,3.09,MM,1707771471
489,havre,49.5833,0.3333,6.872222222222221,87,75,8.05,FR,1707771471
490,asaita,11.5636,41.4394,27.17222222222222,57,100,10.4,ET,1707771471
491,santiago de cao,-7.9589,-79.2392,26.072222222222226,78,75,9.22,PE,1707771471
492,uttarkashi,30.7333,78.45,11.138888888888888,40,100,2.8,IN,1707771471
493,crane,31.3974,-102.3501,13.238888888888889,26,0,8.75,US,1707771471
494,meizhou,24.2977,116.1072,10.072222222222225,70,0,2.01,CN,1707771471
495,madera,37.1666,-119.8343,17.21111111111111,58,94,2.73,US,1707771471
496,sechura,-5.5569,-80.8222,29.577777777777776,59,54,16.2,PE,1707771471
497,kavieng,-2.5744,150.7967,27.82777777777778,78,81,6.82,PG,1707771471
498,vylkove,45.4021,29.586,9.95,77,100,11.59,UA,1707771472
499,vrsac,45.1167,21.3036,8.838888888888887,100,100,6.91,RS,1707771472
500,mahavelona,-17.6848,49.5087,26.98888888888889,89,100,5.41,MG,1707771472
501,prince george,53.9166,-122.753,-0.21111111111111056,84,0,1.01,CA,1707771472
502,al hilaliyya,14.9398,33.234,25.477777777777778,19,4,8.84,SD,1707771472
503,natal,-5.795,-35.2094,30.122222222222224,70,40,14.97,BR,1707771319
504,thunder bay,48.4001,-89.3168,-3.0111111111111124,63,100,10.36,CA,1707771472
505,mizdah,31.4451,12.9801,14.038888888888891,49,7,10.51,LY,1707771472
506,campbellton,48.0075,-66.6727,0.2500000000000016,82,96,9.01,CA,1707771472
507,saint-philippe,-21.3585,55.7679,26.772222222222222,92,72,5.7,RE,1707771472
508,tolanaro,-25.0319,46.9987,26.03888888888889,89,75,10.36,MG,1707771472
509,baie-saint-paul,47.4411,-70.4986,2.9888888888888903,81,98,4.68,CA,1707771473
510,bonadelle ranchos-madera ranchos,36.9847,-119.8746,17.672222222222224,46,73,1.59,US,1707771473
511,cockburn town,21.4612,-71.1419,25.222222222222225,73,0,18.92,TC,1707771473
512,sadovoye,47.7764,44.5089,2.511111111111113,100,100,6.87,RU,1707771473
513,hilo,19.7297,-155.09,26.811111111111114,67,0,5.75,US,1707771473
514,primero de mayo,-32.2552,-58.4228,22.12222222222222,88,100,13.71,AR,1707771473
515,nicoya,10.1483,-85.452,34.672222222222224,42,70,7.4,CR,1707771473
516,kayangel,8.0823,134.7173,26.97222222222222,81,100,25.43,PW,1707771473
517,papao,-17.75,-149.55,27.822222222222223,92,100,26.89,PF,1707771473
518,tokar,18.4254,37.729,22.272222222222226,71,0,4.45,SD,1707771473
519,rawson,-43.3002,-65.1023,15.899999999999999,41,33,14.81,AR,1707771474
520,onguday,50.75,86.15,-25.750000000000004,96,52,2.68,RU,1707771474
521,novyy urengoy,66.0833,76.6333,-35.6,94,16,5.93,RU,1707771474
522,kelme,55.6339,22.9342,1.0111111111111113,99,100,6.89,LT,1707771474
523,kingscliff,-28.2667,153.5667,24.850000000000005,83,75,6.91,AU,1707771474
524,adrar,20.5022,-10.0711,24.68888888888889,25,0,7.47,MR,1707771474
525,arcachon,44.5875,-1.0519,8.177777777777777,93,75,5.75,FR,1707771474
526,san pedro,14.35,121.0167,24.55,74,20,10.0,PH,1707771274
527,sosnogorsk,63.6023,53.8817,-20.811111111111114,100,100,1.99,RU,1707771474
528,viedma,-40.8135,-62.9967,19.038888888888888,35,4,16.62,AR,1707771474
529,kwadukuza,-29.3282,31.2895,23.938888888888894,93,0,4.43,ZA,1707771259
530,pinki,56.9419,23.9108,1.0999999999999983,93,100,8.05,LV,1707771475
531,gracias,14.5833,-88.5833,35.81111111111111,28,7,3.15,HN,1707771475
532,hobyo,5.3505,48.5268,26.2,81,61,14.05,SO,1707771475
533,petropavlovka,50.6114,105.3196,-16.072222222222223,83,100,5.01,RU,1707771475
534,mossel bay,-34.1831,22.146,22.961111111111112,73,1,13.31,ZA,1707771475
535,as sulayyil,20.4607,45.5779,18.138888888888893,29,2,10.31,SA,1707771475
536,geraldton,-28.7667,114.6,18.22777777777778,88,0,8.05,AU,1707771466
537,labytnangi,66.6572,66.4183,-34.55,92,9,2.98,RU,1707771475
538,scicli,36.7902,14.7014,10.750000000000002,81,38,10.85,IT,1707771475
539,swift current,50.2834,-107.8014,-0.5499999999999992,93,75,11.5,CA,1707771475
540,mandera,3.9366,41.867,30.21111111111111,26,10,9.86,KE,1707771475
541,nyurba,63.2842,118.3319,-25.8,97,100,4.88,RU,1707771476
542,petauke,-14.2426,31.3253,19.68888888888889,89,92,8.39,ZM,1707771476
543,thurso,58.5927,-3.5259,3.811111111111111,83,100,16.42,GB,1707771476
544,karratha,-20.7377,116.8463,26.52777777777778,81,0,13.65,AU,1707771372
545,sinop,41.7711,34.8709,11.872222222222222,52,100,7.94,TR,1707771476
546,bengkulu,-3.8004,102.2655,24.400000000000002,88,96,5.08,ID,1707771476
547,mil'kovo,55.6078,37.7956,-1.7277777777777776,97,100,5.68,RU,1707771476
548,baikonur,45.6167,63.3167,-3.6000000000000005,65,58,8.16,KZ,1707771476
549,thala,35.5724,8.6703,8.438888888888888,84,33,13.78,TN,1707771476
550,san juan del sur,11.2529,-85.8705,32.12222222222222,62,0,4.61,NI,1707771476
551,yoloten,37.2989,62.3597,11.83888888888889,38,22,8.7,TM,1707771476
552,sao gabriel da cachoeira,-0.1303,-67.0892,32.388888888888886,48,23,1.79,BR,1707771477
553,aur,8.1499,171.1687,27.477777777777774,78,100,21.79,MH,1707771477
554,fort-shevchenko,44.5086,50.263,9.43888888888889,62,99,12.62,KZ,1707771477
555,rosarito,32.3333,-117.0333,21.33888888888889,41,0,9.98,MX,1707771374
556,pacific grove,36.6177,-121.9166,17.43888888888889,69,0,10.0,US,1707771300
557,gapyeong,37.831,127.5106,2.1722222222222203,88,8,4.74,KR,1707771477
558,khovd,48.0056,91.6419,-13.422222222222222,44,0,8.72,MN,1707771477
559,tanjung pinang,0.9167,104.45,27.022222222222222,83,86,21.52,ID,1707771477
